[{
  "slug": "st-marys",
  "name": "St. Mary's",
  "lat": "49.9166667",
  "lng": "-6.3166667",
  "url": "st-marys-tide-times"
}, {
  "slug": "penzance-newlyn",
  "name": "Penzance (Newlyn)",
  "lat": "50.1000000",
  "lng": "-5.5500000",
  "url": "penzance-newlyn-tide-times"
}, {
  "slug": "porthleven",
  "name": "Porthleven",
  "lat": "50.0833333",
  "lng": "-5.3166667",
  "url": "porthleven-tide-times"
}, {
  "slug": "lizard-point",
  "name": "Lizard Point",
  "lat": "49.9666667",
  "lng": "-5.2000000",
  "url": "lizard-point-tide-times"
}, {
  "slug": "coverack",
  "name": "Coverack",
  "lat": "50.0166667",
  "lng": "-5.1000000",
  "url": "coverack-tide-times"
}, {
  "slug": "helford-river-entrance",
  "name": "Helford River (Entrance)",
  "lat": "50.0833333",
  "lng": "-5.0833333",
  "url": "helford-river-entrance-tide-times"
}, {
  "slug": "falmouth",
  "name": "Falmouth",
  "lat": "50.1500000",
  "lng": "-5.0500000",
  "url": "falmouth-tide-times"
}, {
  "slug": "truro",
  "name": "Truro",
  "lat": "50.2666667",
  "lng": "-5.0500000",
  "url": "truro-tide-times"
}, {
  "slug": "mevagissey",
  "name": "Mevagissey",
  "lat": "50.2666667",
  "lng": "-4.7833333",
  "url": "mevagissey-tide-times"
}, {
  "slug": "par",
  "name": "Par",
  "lat": "50.3500000",
  "lng": "-4.7000000",
  "url": "par-tide-times"
}, {
  "slug": "fowey",
  "name": "Fowey",
  "lat": "50.3333333",
  "lng": "-4.6333333",
  "url": "fowey-tide-times"
}, {
  "slug": "lostwithiel",
  "name": "Lostwithiel",
  "lat": "50.4000000",
  "lng": "-4.6666667",
  "url": "lostwithiel-tide-times"
}, {
  "slug": "looe",
  "name": "Looe",
  "lat": "50.3500000",
  "lng": "-4.4500000",
  "url": "looe-tide-times"
}, {
  "slug": "whitsand-bay",
  "name": "Whitsand Bay",
  "lat": "50.3333333",
  "lng": "-4.2500000",
  "url": "whitsand-bay-tide-times"
}, {
  "slug": "plymouth-devonport",
  "name": "Plymouth (Devonport)",
  "lat": "50.3666667",
  "lng": "-4.1833333",
  "url": "plymouth-devonport-tide-times"
}, {
  "slug": "saltash",
  "name": "Saltash",
  "lat": "50.4000000",
  "lng": "-4.2000000",
  "url": "saltash-tide-times"
}, {
  "slug": "cargreen",
  "name": "Cargreen",
  "lat": "50.4500000",
  "lng": "-4.2000000",
  "url": "cargreen-tide-times"
}, {
  "slug": "cotehele-quay",
  "name": "Cotehele Quay",
  "lat": "50.4833333",
  "lng": "-4.2166667",
  "url": "cotehele-quay-tide-times"
}, {
  "slug": "lopwell",
  "name": "Lopwell",
  "lat": "50.4666667",
  "lng": "-4.1500000",
  "url": "lopwell-tide-times"
}, {
  "slug": "jupiter-point",
  "name": "Jupiter Point",
  "lat": "50.3833333",
  "lng": "-4.2333333",
  "url": "jupiter-point-tide-times"
}, {
  "slug": "st-germans",
  "name": "St. Germans",
  "lat": "50.3833333",
  "lng": "-4.3000000",
  "url": "st-germans-tide-times"
}, {
  "slug": "turnchapel",
  "name": "Turnchapel",
  "lat": "50.3666667",
  "lng": "-4.1166667",
  "url": "turnchapel-tide-times"
}, {
  "slug": "bovisand-pier",
  "name": "Bovisand Pier",
  "lat": "50.3333333",
  "lng": "-4.1333333",
  "url": "bovisand-pier-tide-times"
}, {
  "slug": "river-yealm-entrance",
  "name": "River Yealm Entrance",
  "lat": "50.3166667",
  "lng": "-4.0666667",
  "url": "river-yealm-entrance-tide-times"
}, {
  "slug": "salcombe",
  "name": "Salcombe",
  "lat": "50.2166667",
  "lng": "-3.7833333",
  "url": "salcombe-tide-times"
}, {
  "slug": "start-point",
  "name": "Start Point",
  "lat": "50.2166667",
  "lng": "-3.6500000",
  "url": "start-point-tide-times"
}, {
  "slug": "dartmouth",
  "name": "Dartmouth",
  "lat": "50.3500000",
  "lng": "-3.5833333",
  "url": "dartmouth-tide-times"
}, {
  "slug": "greenway-quay",
  "name": "Greenway Quay",
  "lat": "50.3833333",
  "lng": "-3.5833333",
  "url": "greenway-quay-tide-times"
}, {
  "slug": "stoke-gabriel-duncannon",
  "name": "Stoke Gabriel (Duncannon)",
  "lat": "50.4000000",
  "lng": "-3.6333333",
  "url": "stoke-gabriel-duncannon-tide-times"
}, {
  "slug": "totnes",
  "name": "Totnes",
  "lat": "50.4333333",
  "lng": "-3.6833333",
  "url": "totnes-tide-times"
}, {
  "slug": "torquay",
  "name": "Torquay",
  "lat": "50.4666667",
  "lng": "-3.5333333",
  "url": "torquay-tide-times"
}, {
  "slug": "teignmouth-approaches",
  "name": "Teignmouth (Approaches)",
  "lat": "50.5500000",
  "lng": "-3.4833333",
  "url": "teignmouth-approaches-tide-times"
}, {
  "slug": "teignmouth-new-quay",
  "name": "Teignmouth (New Quay)",
  "lat": "50.5500000",
  "lng": "-3.5000000",
  "url": "teignmouth-new-quay-tide-times"
}, {
  "slug": "exmouth-approaches",
  "name": "Exmouth (Approaches)",
  "lat": "50.6000000",
  "lng": "-3.3833333",
  "url": "exmouth-approaches-tide-times"
}, {
  "slug": "exmouth-dock",
  "name": "Exmouth Dock",
  "lat": "50.6166667",
  "lng": "-3.4166667",
  "url": "exmouth-dock-tide-times"
}, {
  "slug": "starcross",
  "name": "Starcross",
  "lat": "50.6333333",
  "lng": "-3.4500000",
  "url": "starcross-tide-times"
}, {
  "slug": "turf-lock",
  "name": "Turf Lock",
  "lat": "50.6666667",
  "lng": "-3.4666667",
  "url": "turf-lock-tide-times"
}, {
  "slug": "topsham",
  "name": "Topsham",
  "lat": "50.6833333",
  "lng": "-3.4666667",
  "url": "topsham-tide-times"
}, {
  "slug": "lyme-regis",
  "name": "Lyme Regis",
  "lat": "50.7166667",
  "lng": "-2.9333333",
  "url": "lyme-regis-tide-times"
}, {
  "slug": "bridport-west-bay",
  "name": "Bridport (West Bay)",
  "lat": "50.7166667",
  "lng": "-2.7666667",
  "url": "bridport-west-bay-tide-times"
}, {
  "slug": "chesil-beach",
  "name": "Chesil Beach",
  "lat": "50.6166667",
  "lng": "-2.5500000",
  "url": "chesil-beach-tide-times"
}, {
  "slug": "chesil-cove",
  "name": "Chesil Cove",
  "lat": "50.5666667",
  "lng": "-2.4666667",
  "url": "chesil-cove-tide-times"
}, {
  "slug": "portland",
  "name": "Portland",
  "lat": "50.5666667",
  "lng": "-2.4333333",
  "url": "portland-tide-times"
}, {
  "slug": "lulworth-cove",
  "name": "Lulworth Cove",
  "lat": "50.6166667",
  "lng": "-2.2500000",
  "url": "lulworth-cove-tide-times"
}, {
  "slug": "mupe-bay",
  "name": "Mupe Bay",
  "lat": "50.6166667",
  "lng": "-2.2166667",
  "url": "mupe-bay-tide-times"
}, {
  "slug": "swanage",
  "name": "Swanage",
  "lat": "50.6166667",
  "lng": "-1.9500000",
  "url": "swanage-tide-times"
}, {
  "slug": "poole-entrance",
  "name": "Poole (Entrance)",
  "lat": "50.6833333",
  "lng": "-1.9500000",
  "url": "poole-entrance-tide-times"
}, {
  "slug": "poole-harbour",
  "name": "Poole Harbour",
  "lat": "50.7166667",
  "lng": "-1.9833333",
  "url": "poole-harbour-tide-times"
}, {
  "slug": "pottery-pier",
  "name": "Pottery Pier",
  "lat": "50.7000000",
  "lng": "-1.9833333",
  "url": "pottery-pier-tide-times"
}, {
  "slug": "wareham-river-frome",
  "name": "Wareham (River Frome)",
  "lat": "50.6833333",
  "lng": "-2.1000000",
  "url": "wareham-river-frome-tide-times"
}, {
  "slug": "cleavel-point",
  "name": "Cleavel Point",
  "lat": "50.6666667",
  "lng": "-2.0000000",
  "url": "cleavel-point-tide-times"
}, {
  "slug": "bournemouth",
  "name": "Bournemouth",
  "lat": "50.7166667",
  "lng": "-1.8666667",
  "url": "bournemouth-tide-times"
}, {
  "slug": "christchurch-entrance",
  "name": "Christchurch (Entrance)",
  "lat": "50.7166667",
  "lng": "-1.7500000",
  "url": "christchurch-entrance-tide-times"
}, {
  "slug": "christchurch-quay",
  "name": "Christchurch (Quay)",
  "lat": "50.7333333",
  "lng": "-1.7666667",
  "url": "christchurch-quay-tide-times"
}, {
  "slug": "christchurch-tuckton",
  "name": "Christchurch (Tuckton)",
  "lat": "50.7333333",
  "lng": "-1.7833333",
  "url": "christchurch-tuckton-tide-times"
}, {
  "slug": "hurst-point",
  "name": "Hurst Point",
  "lat": "50.7000000",
  "lng": "-1.5500000",
  "url": "hurst-point-tide-times"
}, {
  "slug": "lymington",
  "name": "Lymington",
  "lat": "50.7666667",
  "lng": "-1.5333333",
  "url": "lymington-tide-times"
}, {
  "slug": "bucklers-hard",
  "name": "Bucklers Hard",
  "lat": "50.8000000",
  "lng": "-1.4166667",
  "url": "bucklers-hard-tide-times"
}, {
  "slug": "stansore-point",
  "name": "Stansore Point",
  "lat": "50.7833333",
  "lng": "-1.3333333",
  "url": "stansore-point-tide-times"
}, {
  "slug": "yarmouth",
  "name": "Yarmouth",
  "lat": "50.7000000",
  "lng": "-1.5000000",
  "url": "yarmouth-tide-times"
}, {
  "slug": "totland-bay",
  "name": "Totland Bay",
  "lat": "50.6833333",
  "lng": "-1.5500000",
  "url": "totland-bay-tide-times"
}, {
  "slug": "freshwater-bay",
  "name": "Freshwater Bay",
  "lat": "50.6666667",
  "lng": "-1.5166667",
  "url": "freshwater-bay-tide-times"
}, {
  "slug": "ventnor",
  "name": "Ventnor",
  "lat": "50.6000000",
  "lng": "-1.2000000",
  "url": "ventnor-tide-times"
}, {
  "slug": "sandown",
  "name": "Sandown",
  "lat": "50.6500000",
  "lng": "-1.1500000",
  "url": "sandown-tide-times"
}, {
  "slug": "foreland-lifeboat-slip",
  "name": "Foreland (Lifeboat Slip)",
  "lat": "50.6833333",
  "lng": "-1.0666667",
  "url": "foreland-lifeboat-slip-tide-times"
}, {
  "slug": "bembridge-approaches",
  "name": "Bembridge Approaches",
  "lat": "50.7000000",
  "lng": "-1.1000000",
  "url": "bembridge-approaches-tide-times"
}, {
  "slug": "bembridge-harbour",
  "name": "Bembridge Harbour",
  "lat": "50.7000000",
  "lng": "-1.1166667",
  "url": "bembridge-harbour-tide-times"
}, {
  "slug": "ryde",
  "name": "Ryde",
  "lat": "50.7333333",
  "lng": "-1.1666667",
  "url": "ryde-tide-times"
}, {
  "slug": "cowes",
  "name": "Cowes",
  "lat": "50.7666667",
  "lng": "-1.3000000",
  "url": "cowes-tide-times"
}, {
  "slug": "folly-inn",
  "name": "Folly Inn",
  "lat": "50.7333333",
  "lng": "-1.2833333",
  "url": "folly-inn-tide-times"
}, {
  "slug": "newport-isle-of-wight",
  "name": "Newport (Isle Of Wight)",
  "lat": "50.7000000",
  "lng": "-1.2833333",
  "url": "newport-isle-of-wight-tide-times"
}, {
  "slug": "calshot-castle",
  "name": "Calshot Castle",
  "lat": "50.8166667",
  "lng": "-1.3000000",
  "url": "calshot-castle-tide-times"
}, {
  "slug": "southampton",
  "name": "Southampton",
  "lat": "50.8833333",
  "lng": "-1.4000000",
  "url": "southampton-tide-times"
}, {
  "slug": "redbridge",
  "name": "Redbridge",
  "lat": "50.9166667",
  "lng": "-1.4666667",
  "url": "redbridge-tide-times"
}, {
  "slug": "warsash",
  "name": "Warsash",
  "lat": "50.8500000",
  "lng": "-1.3000000",
  "url": "warsash-tide-times"
}, {
  "slug": "bursledon",
  "name": "Bursledon",
  "lat": "50.8833333",
  "lng": "-1.3000000",
  "url": "bursledon-tide-times"
}, {
  "slug": "lee-on-the-solent",
  "name": "Lee-On-The-Solent",
  "lat": "50.8000000",
  "lng": "-1.2000000",
  "url": "lee-on-the-solent-tide-times"
}, {
  "slug": "portsmouth",
  "name": "Portsmouth",
  "lat": "50.8000000",
  "lng": "-1.1166667",
  "url": "portsmouth-tide-times"
}, {
  "slug": "langstone-harbour",
  "name": "Langstone Harbour",
  "lat": "50.8000000",
  "lng": "-1.0166667",
  "url": "langstone-harbour-tide-times"
}, {
  "slug": "chichester-harbour-entrance",
  "name": "Chichester Harbour (Entrance)",
  "lat": "50.7833333",
  "lng": "-0.9333333",
  "url": "chichester-harbour-entrance-tide-times"
}, {
  "slug": "northney",
  "name": "Northney",
  "lat": "50.8333333",
  "lng": "-0.9666667",
  "url": "northney-tide-times"
}, {
  "slug": "bosham",
  "name": "Bosham",
  "lat": "50.8333333",
  "lng": "-0.8666667",
  "url": "bosham-tide-times"
}, {
  "slug": "itchenor",
  "name": "Itchenor",
  "lat": "50.8000000",
  "lng": "-0.8666667",
  "url": "itchenor-tide-times"
}, {
  "slug": "dell-quay",
  "name": "Dell Quay",
  "lat": "50.8166667",
  "lng": "-0.8166667",
  "url": "dell-quay-tide-times"
}, {
  "slug": "selsey-bill",
  "name": "Selsey Bill",
  "lat": "50.7333333",
  "lng": "-0.7833333",
  "url": "selsey-bill-tide-times"
}, {
  "slug": "nab-tower",
  "name": "Nab Tower",
  "lat": "50.6666667",
  "lng": "-0.9500000",
  "url": "nab-tower-tide-times"
}, {
  "slug": "pagham",
  "name": "Pagham",
  "lat": "50.7666667",
  "lng": "-0.7166667",
  "url": "pagham-tide-times"
}, {
  "slug": "bognor-regis",
  "name": "Bognor Regis",
  "lat": "50.7833333",
  "lng": "-0.6666667",
  "url": "bognor-regis-tide-times"
}, {
  "slug": "littlehampton",
  "name": "Littlehampton",
  "lat": "50.8000000",
  "lng": "-0.5500000",
  "url": "littlehampton-tide-times"
}, {
  "slug": "arundel",
  "name": "Arundel",
  "lat": "50.8500000",
  "lng": "-0.5500000",
  "url": "arundel-tide-times"
}, {
  "slug": "worthing",
  "name": "Worthing",
  "lat": "50.8000000",
  "lng": "-0.3666667",
  "url": "worthing-tide-times"
}, {
  "slug": "shoreham",
  "name": "Shoreham",
  "lat": "50.8333333",
  "lng": "-0.2500000",
  "url": "shoreham-tide-times"
}, {
  "slug": "brighton-marina",
  "name": "Brighton Marina",
  "lat": "50.8166667",
  "lng": "-0.1000000",
  "url": "brighton-marina-tide-times"
}, {
  "slug": "newhaven",
  "name": "Newhaven",
  "lat": "50.7833333",
  "lng": "0.0666667",
  "url": "newhaven-tide-times"
}, {
  "slug": "eastbourne",
  "name": "Eastbourne",
  "lat": "50.7666667",
  "lng": "0.3000000",
  "url": "eastbourne-tide-times"
}, {
  "slug": "hastings",
  "name": "Hastings",
  "lat": "50.8500000",
  "lng": "0.6000000",
  "url": "hastings-tide-times"
}, {
  "slug": "rye-approaches",
  "name": "Rye (Approaches)",
  "lat": "50.9166667",
  "lng": "0.7833333",
  "url": "rye-approaches-tide-times"
}, {
  "slug": "rye-harbour",
  "name": "Rye (Harbour)",
  "lat": "50.9333333",
  "lng": "0.7666667",
  "url": "rye-harbour-tide-times"
}, {
  "slug": "dungeness",
  "name": "Dungeness",
  "lat": "50.9166667",
  "lng": "0.9666667",
  "url": "dungeness-tide-times"
}, {
  "slug": "folkestone",
  "name": "Folkestone",
  "lat": "51.0833333",
  "lng": "1.2000000",
  "url": "folkestone-tide-times"
}, {
  "slug": "dover",
  "name": "Dover",
  "lat": "51.1166667",
  "lng": "1.3166667",
  "url": "dover-tide-times"
}, {
  "slug": "deal",
  "name": "Deal",
  "lat": "51.2166667",
  "lng": "1.4166667",
  "url": "deal-tide-times"
}, {
  "slug": "richborough",
  "name": "Richborough",
  "lat": "51.3000000",
  "lng": "1.3500000",
  "url": "richborough-tide-times"
}, {
  "slug": "ramsgate",
  "name": "Ramsgate",
  "lat": "51.3333333",
  "lng": "1.4166667",
  "url": "ramsgate-tide-times"
}, {
  "slug": "broadstairs",
  "name": "Broadstairs",
  "lat": "51.3666667",
  "lng": "1.4500000",
  "url": "broadstairs-tide-times"
}, {
  "slug": "margate",
  "name": "Margate",
  "lat": "51.3833333",
  "lng": "1.3833333",
  "url": "margate-tide-times"
}, {
  "slug": "herne-bay",
  "name": "Herne Bay",
  "lat": "51.3833333",
  "lng": "1.1166667",
  "url": "herne-bay-tide-times"
}, {
  "slug": "whitstable-approaches",
  "name": "Whitstable Approaches",
  "lat": "51.3666667",
  "lng": "1.0333333",
  "url": "whitstable-approaches-tide-times"
}, {
  "slug": "grovehurst-jetty",
  "name": "Grovehurst Jetty",
  "lat": "51.3666667",
  "lng": "0.7666667",
  "url": "grovehurst-jetty-tide-times"
}, {
  "slug": "faversham",
  "name": "Faversham",
  "lat": "51.3166667",
  "lng": "0.9000000",
  "url": "faversham-tide-times"
}, {
  "slug": "sheerness",
  "name": "Sheerness",
  "lat": "51.4500000",
  "lng": "0.7500000",
  "url": "sheerness-tide-times"
}, {
  "slug": "bee-ness",
  "name": "Bee Ness",
  "lat": "51.4166667",
  "lng": "0.6500000",
  "url": "bee-ness-tide-times"
}, {
  "slug": "bartlett-creek",
  "name": "Bartlett Creek",
  "lat": "51.3833333",
  "lng": "0.6333333",
  "url": "bartlett-creek-tide-times"
}, {
  "slug": "darnett-ness",
  "name": "Darnett Ness",
  "lat": "51.4000000",
  "lng": "0.6000000",
  "url": "darnett-ness-tide-times"
}, {
  "slug": "chatham-lock-approaches",
  "name": "Chatham (Lock Approaches)",
  "lat": "51.4000000",
  "lng": "0.5500000",
  "url": "chatham-lock-approaches-tide-times"
}, {
  "slug": "upnor",
  "name": "Upnor",
  "lat": "51.4166667",
  "lng": "0.5333333",
  "url": "upnor-tide-times"
}, {
  "slug": "rochester-strood-pier",
  "name": "Rochester (Strood Pier)",
  "lat": "51.4000000",
  "lng": "0.5000000",
  "url": "rochester-strood-pier-tide-times"
}, {
  "slug": "wouldham",
  "name": "Wouldham",
  "lat": "51.3500000",
  "lng": "0.4500000",
  "url": "wouldham-tide-times"
}, {
  "slug": "new-hythe",
  "name": "New Hythe",
  "lat": "51.3166667",
  "lng": "0.4666667",
  "url": "new-hythe-tide-times"
}, {
  "slug": "allington-lock",
  "name": "Allington Lock",
  "lat": "51.3000000",
  "lng": "0.5000000",
  "url": "allington-lock-tide-times"
}, {
  "slug": "southend-on-sea",
  "name": "Southend-On-Sea",
  "lat": "51.5166667",
  "lng": "0.7166667",
  "url": "southend-on-sea-tide-times"
}, {
  "slug": "coryton",
  "name": "Coryton",
  "lat": "51.5000000",
  "lng": "0.5166667",
  "url": "coryton-tide-times"
}, {
  "slug": "tilbury",
  "name": "Tilbury",
  "lat": "51.4500000",
  "lng": "0.3666667",
  "url": "tilbury-tide-times"
}, {
  "slug": "north-woolwich",
  "name": "North Woolwich",
  "lat": "51.5000000",
  "lng": "0.0833333",
  "url": "north-woolwich-tide-times"
}, {
  "slug": "london-bridge-tower-pier",
  "name": "London Bridge (Tower Pier)",
  "lat": "51.5000000",
  "lng": "-0.0833333",
  "url": "london-bridge-tower-pier-tide-times"
}, {
  "slug": "chelsea-bridge",
  "name": "Chelsea Bridge",
  "lat": "51.4833333",
  "lng": "-0.1500000",
  "url": "chelsea-bridge-tide-times"
}, {
  "slug": "albert-bridge",
  "name": "Albert Bridge",
  "lat": "51.4833333",
  "lng": "-0.1666667",
  "url": "albert-bridge-tide-times"
}, {
  "slug": "hammersmith-bridge",
  "name": "Hammersmith Bridge",
  "lat": "51.4833333",
  "lng": "-0.2333333",
  "url": "hammersmith-bridge-tide-times"
}, {
  "slug": "kew-bridge",
  "name": "Kew Bridge",
  "lat": "51.4833333",
  "lng": "-0.2833333",
  "url": "kew-bridge-tide-times"
}, {
  "slug": "richmond-lock",
  "name": "Richmond Lock",
  "lat": "51.4666667",
  "lng": "-0.3166667",
  "url": "richmond-lock-tide-times"
}, {
  "slug": "shivering-sand",
  "name": "Shivering Sand",
  "lat": "51.5000000",
  "lng": "1.0833333",
  "url": "shivering-sand-tide-times"
}, {
  "slug": "se-long-sand",
  "name": "S.E. Long Sand",
  "lat": "51.5333333",
  "lng": "1.3500000",
  "url": "se-long-sand-tide-times"
}, {
  "slug": "whitaker-beacon",
  "name": "Whitaker Beacon",
  "lat": "51.6666667",
  "lng": "1.1000000",
  "url": "whitaker-beacon-tide-times"
}, {
  "slug": "holliwell-point",
  "name": "Holliwell Point",
  "lat": "51.6333333",
  "lng": "0.9333333",
  "url": "holliwell-point-tide-times"
}, {
  "slug": "rochford",
  "name": "Rochford",
  "lat": "51.5833333",
  "lng": "0.7166667",
  "url": "rochford-tide-times"
}, {
  "slug": "burnham-on-crouch",
  "name": "Burnham-On-Crouch",
  "lat": "51.6166667",
  "lng": "0.8000000",
  "url": "burnham-on-crouch-tide-times"
}, {
  "slug": "north-fambridge",
  "name": "North Fambridge",
  "lat": "51.6333333",
  "lng": "0.6833333",
  "url": "north-fambridge-tide-times"
}, {
  "slug": "hullbridge",
  "name": "Hullbridge",
  "lat": "51.6333333",
  "lng": "0.6333333",
  "url": "hullbridge-tide-times"
}, {
  "slug": "battlesbridge",
  "name": "Battlesbridge",
  "lat": "51.6166667",
  "lng": "0.5666667",
  "url": "battlesbridge-tide-times"
}, {
  "slug": "bradwell-waterside",
  "name": "Bradwell Waterside",
  "lat": "51.7500000",
  "lng": "0.9000000",
  "url": "bradwell-waterside-tide-times"
}, {
  "slug": "osea-island",
  "name": "Osea Island",
  "lat": "51.7166667",
  "lng": "0.7666667",
  "url": "osea-island-tide-times"
}, {
  "slug": "maldon",
  "name": "Maldon",
  "lat": "51.7333333",
  "lng": "0.7000000",
  "url": "maldon-tide-times"
}, {
  "slug": "west-mersea",
  "name": "West Mersea",
  "lat": "51.7833333",
  "lng": "0.9000000",
  "url": "west-mersea-tide-times"
}, {
  "slug": "brightlingsea",
  "name": "Brightlingsea",
  "lat": "51.8000000",
  "lng": "1.0000000",
  "url": "brightlingsea-tide-times"
}, {
  "slug": "colchester",
  "name": "Colchester",
  "lat": "51.8833333",
  "lng": "0.9333333",
  "url": "colchester-tide-times"
}, {
  "slug": "clacton-on-sea",
  "name": "Clacton-On-Sea",
  "lat": "51.7833333",
  "lng": "1.1666667",
  "url": "clacton-on-sea-tide-times"
}, {
  "slug": "walton-on-the-naze",
  "name": "Walton-On-The-Naze",
  "lat": "51.8500000",
  "lng": "1.2833333",
  "url": "walton-on-the-naze-tide-times"
}, {
  "slug": "bramble-creek",
  "name": "Bramble Creek",
  "lat": "51.8833333",
  "lng": "1.2333333",
  "url": "bramble-creek-tide-times"
}, {
  "slug": "sunk-head",
  "name": "Sunk Head",
  "lat": "51.7833333",
  "lng": "1.5000000",
  "url": "sunk-head-tide-times"
}, {
  "slug": "harwich",
  "name": "Harwich",
  "lat": "51.9500000",
  "lng": "1.2833333",
  "url": "harwich-tide-times"
}, {
  "slug": "mistley",
  "name": "Mistley",
  "lat": "51.9500000",
  "lng": "1.0833333",
  "url": "mistley-tide-times"
}, {
  "slug": "ipswich",
  "name": "Ipswich",
  "lat": "52.0500000",
  "lng": "1.1666667",
  "url": "ipswich-tide-times"
}, {
  "slug": "felixstowe-pier",
  "name": "Felixstowe Pier",
  "lat": "51.9500000",
  "lng": "1.3500000",
  "url": "felixstowe-pier-tide-times"
}, {
  "slug": "woodbridge-haven",
  "name": "Woodbridge Haven",
  "lat": "51.9833333",
  "lng": "1.4000000",
  "url": "woodbridge-haven-tide-times"
}, {
  "slug": "woodbridge",
  "name": "Woodbridge",
  "lat": "52.0833333",
  "lng": "1.3166667",
  "url": "woodbridge-tide-times"
}, {
  "slug": "bawdsey",
  "name": "Bawdsey",
  "lat": "52.0166667",
  "lng": "1.4333333",
  "url": "bawdsey-tide-times"
}, {
  "slug": "orford-haven-bar",
  "name": "Orford Haven Bar",
  "lat": "52.0333333",
  "lng": "1.4666667",
  "url": "orford-haven-bar-tide-times"
}, {
  "slug": "orford-quay",
  "name": "Orford Quay",
  "lat": "52.0833333",
  "lng": "1.5333333",
  "url": "orford-quay-tide-times"
}, {
  "slug": "slaughden-quay",
  "name": "Slaughden Quay",
  "lat": "52.1333333",
  "lng": "1.6000000",
  "url": "slaughden-quay-tide-times"
}, {
  "slug": "iken-cliffs",
  "name": "Iken Cliffs",
  "lat": "52.1500000",
  "lng": "1.5166667",
  "url": "iken-cliffs-tide-times"
}, {
  "slug": "orford-ness",
  "name": "Orford Ness",
  "lat": "52.0833333",
  "lng": "1.5833333",
  "url": "orford-ness-tide-times"
}, {
  "slug": "aldeburgh",
  "name": "Aldeburgh",
  "lat": "52.1500000",
  "lng": "1.6000000",
  "url": "aldeburgh-tide-times"
}, {
  "slug": "minsmere-sluice",
  "name": "Minsmere Sluice",
  "lat": "52.2333333",
  "lng": "1.6333333",
  "url": "minsmere-sluice-tide-times"
}, {
  "slug": "southwold",
  "name": "Southwold",
  "lat": "52.3166667",
  "lng": "1.6666667",
  "url": "southwold-tide-times"
}, {
  "slug": "lowestoft",
  "name": "Lowestoft",
  "lat": "52.4666667",
  "lng": "1.7500000",
  "url": "lowestoft-tide-times"
}, {
  "slug": "gorleston-on-sea",
  "name": "Great Yarmouth (Gorleston-On-Sea)",
  "lat": "52.5666667",
  "lng": "1.7333333",
  "url": "gorleston-on-sea-tide-times"
}, {
  "slug": "great-yarmouth-britannia-pier",
  "name": "Great Yarmouth (Britannia Pier)",
  "lat": "52.6000000",
  "lng": "1.7500000",
  "url": "great-yarmouth-britannia-pier-tide-times"
}, {
  "slug": "caister-on-sea",
  "name": "Caister-On-Sea",
  "lat": "52.6500000",
  "lng": "1.7333333",
  "url": "caister-on-sea-tide-times"
}, {
  "slug": "winterton-on-sea",
  "name": "Winterton-On-Sea",
  "lat": "52.7166667",
  "lng": "1.7000000",
  "url": "winterton-on-sea-tide-times"
}, {
  "slug": "cromer",
  "name": "Cromer",
  "lat": "52.9333333",
  "lng": "1.3000000",
  "url": "cromer-tide-times"
}, {
  "slug": "blakeney-bar",
  "name": "Blakeney Bar",
  "lat": "52.9833333",
  "lng": "0.9833333",
  "url": "blakeney-bar-tide-times"
}, {
  "slug": "blakeney",
  "name": "Blakeney",
  "lat": "52.9500000",
  "lng": "1.0166667",
  "url": "blakeney-tide-times"
}, {
  "slug": "wells-bar",
  "name": "Wells Bar",
  "lat": "52.9833333",
  "lng": "0.8166667",
  "url": "wells-bar-tide-times"
}, {
  "slug": "wells",
  "name": "Wells",
  "lat": "52.9666667",
  "lng": "0.8500000",
  "url": "wells-tide-times"
}, {
  "slug": "burnham-overy-staithe",
  "name": "Burnham (Overy Staithe)",
  "lat": "52.9666667",
  "lng": "0.7500000",
  "url": "burnham-overy-staithe-tide-times"
}, {
  "slug": "hunstanton",
  "name": "Hunstanton",
  "lat": "52.9333333",
  "lng": "0.4833333",
  "url": "hunstanton-tide-times"
}, {
  "slug": "west-stones",
  "name": "West Stones",
  "lat": "52.8333333",
  "lng": "0.3500000",
  "url": "west-stones-tide-times"
}, {
  "slug": "kings-lynn",
  "name": "King's Lynn",
  "lat": "52.7500000",
  "lng": "0.4000000",
  "url": "kings-lynn-tide-times"
}, {
  "slug": "outer-westmark-knock",
  "name": "Outer Westmark Knock",
  "lat": "52.8833333",
  "lng": "0.2166667",
  "url": "outer-westmark-knock-tide-times"
}, {
  "slug": "wisbech-cut",
  "name": "Wisbech Cut",
  "lat": "52.8000000",
  "lng": "0.2166667",
  "url": "wisbech-cut-tide-times"
}, {
  "slug": "port-sutton-bridge",
  "name": "Port Sutton Bridge",
  "lat": "52.7666667",
  "lng": "0.2000000",
  "url": "port-sutton-bridge-tide-times"
}, {
  "slug": "wisbech",
  "name": "Wisbech",
  "lat": "52.6666667",
  "lng": "0.1500000",
  "url": "wisbech-tide-times"
}, {
  "slug": "lawyers-creek",
  "name": "Lawyer's Creek",
  "lat": "52.8833333",
  "lng": "0.0833333",
  "url": "lawyers-creek-tide-times"
}, {
  "slug": "tabs-head",
  "name": "Tabs Head",
  "lat": "52.9333333",
  "lng": "0.0833333",
  "url": "tabs-head-tide-times"
}, {
  "slug": "boston-england",
  "name": "Boston, England",
  "lat": "52.9666667",
  "lng": "-0.0166667",
  "url": "boston-england-tide-times"
}, {
  "slug": "skegness",
  "name": "Skegness",
  "lat": "53.1500000",
  "lng": "0.3500000",
  "url": "skegness-tide-times"
}, {
  "slug": "inner-dowsing-light",
  "name": "Inner Dowsing Light",
  "lat": "53.3166667",
  "lng": "0.5833333",
  "url": "inner-dowsing-light-tide-times"
}, {
  "slug": "spurn-head",
  "name": "Spurn Head",
  "lat": "53.5833333",
  "lng": "0.1166667",
  "url": "spurn-head-tide-times"
}, {
  "slug": "bull-sand-fort",
  "name": "Bull Sand Fort",
  "lat": "53.5666667",
  "lng": "0.0666667",
  "url": "bull-sand-fort-tide-times"
}, {
  "slug": "sunk-dredged-channel",
  "name": "Sunk Dredged Channel",
  "lat": "53.6166667",
  "lng": "-0.0333333",
  "url": "sunk-dredged-channel-tide-times"
}, {
  "slug": "grimsby",
  "name": "Grimsby",
  "lat": "53.5833333",
  "lng": "-0.0666667",
  "url": "grimsby-tide-times"
}, {
  "slug": "humber-sea-terminal",
  "name": "Humber Sea Terminal",
  "lat": "53.6666667",
  "lng": "-0.2333333",
  "url": "humber-sea-terminal-tide-times"
}, {
  "slug": "immingham",
  "name": "Immingham",
  "lat": "53.6333333",
  "lng": "-0.1833333",
  "url": "immingham-tide-times"
}, {
  "slug": "hull-king-george-dock",
  "name": "Hull (King George Dock)",
  "lat": "53.7333333",
  "lng": "-0.2666667",
  "url": "hull-king-george-dock-tide-times"
}, {
  "slug": "hull-alexandra-dock",
  "name": "Hull (Alexandra Dock)",
  "lat": "53.7333333",
  "lng": "-0.3000000",
  "url": "hull-alexandra-dock-tide-times"
}, {
  "slug": "hull-albert-dock",
  "name": "Hull (Albert Dock)",
  "lat": "53.7333333",
  "lng": "-0.3500000",
  "url": "hull-albert-dock-tide-times"
}, {
  "slug": "humber-bridge",
  "name": "Humber Bridge",
  "lat": "53.7166667",
  "lng": "-0.4500000",
  "url": "humber-bridge-tide-times"
}, {
  "slug": "brough",
  "name": "Brough",
  "lat": "53.7166667",
  "lng": "-0.5833333",
  "url": "brough-tide-times"
}, {
  "slug": "burton-stather",
  "name": "Burton Stather",
  "lat": "53.6500000",
  "lng": "-0.7000000",
  "url": "burton-stather-tide-times"
}, {
  "slug": "flixborough-wharf",
  "name": "Flixborough Wharf",
  "lat": "53.6166667",
  "lng": "-0.7000000",
  "url": "flixborough-wharf-tide-times"
}, {
  "slug": "keadby",
  "name": "Keadby",
  "lat": "53.6000000",
  "lng": "-0.7333333",
  "url": "keadby-tide-times"
}, {
  "slug": "owston-ferry",
  "name": "Owston Ferry",
  "lat": "53.4833333",
  "lng": "-0.7666667",
  "url": "owston-ferry-tide-times"
}, {
  "slug": "blacktoft",
  "name": "Blacktoft",
  "lat": "53.7000000",
  "lng": "-0.7166667",
  "url": "blacktoft-tide-times"
}, {
  "slug": "goole",
  "name": "Goole",
  "lat": "53.7000000",
  "lng": "-0.8666667",
  "url": "goole-tide-times"
}, {
  "slug": "bridlington",
  "name": "Bridlington",
  "lat": "54.0833333",
  "lng": "-0.1833333",
  "url": "bridlington-tide-times"
}, {
  "slug": "filey-bay",
  "name": "Filey Bay",
  "lat": "54.2166667",
  "lng": "-0.2666667",
  "url": "filey-bay-tide-times"
}, {
  "slug": "scarborough",
  "name": "Scarborough",
  "lat": "54.2833333",
  "lng": "-0.3833333",
  "url": "scarborough-tide-times"
}, {
  "slug": "whitby",
  "name": "Whitby",
  "lat": "54.4833333",
  "lng": "-0.6166667",
  "url": "whitby-tide-times"
}, {
  "slug": "river-tees-entrance",
  "name": "River Tees Entrance",
  "lat": "54.6333333",
  "lng": "-1.1500000",
  "url": "river-tees-entrance-tide-times"
}, {
  "slug": "middlesbrough-dock-entrance",
  "name": "Middlesbrough (Dock Entrance)",
  "lat": "54.5833333",
  "lng": "-1.2166667",
  "url": "middlesbrough-dock-entrance-tide-times"
}, {
  "slug": "tees-newport-bridge",
  "name": "Tees (Newport) Bridge",
  "lat": "54.5666667",
  "lng": "-1.2666667",
  "url": "tees-newport-bridge-tide-times"
}, {
  "slug": "hartlepool",
  "name": "Hartlepool",
  "lat": "54.7000000",
  "lng": "-1.2000000",
  "url": "hartlepool-tide-times"
}, {
  "slug": "seaham",
  "name": "Seaham",
  "lat": "54.8333333",
  "lng": "-1.3166667",
  "url": "seaham-tide-times"
}, {
  "slug": "sunderland",
  "name": "Sunderland",
  "lat": "54.9166667",
  "lng": "-1.3666667",
  "url": "sunderland-tide-times"
}, {
  "slug": "river-tyne-north-shields",
  "name": "River Tyne (North Shields)",
  "lat": "55.0000000",
  "lng": "-1.4333333",
  "url": "river-tyne-north-shields-tide-times"
}, {
  "slug": "newcastle-upon-tyne",
  "name": "Newcastle-Upon-Tyne",
  "lat": "54.9666667",
  "lng": "-1.6000000",
  "url": "newcastle-upon-tyne-tide-times"
}, {
  "slug": "blyth",
  "name": "Blyth",
  "lat": "55.1166667",
  "lng": "-1.4833333",
  "url": "blyth-tide-times"
}, {
  "slug": "coquet-island",
  "name": "Coquet Island",
  "lat": "55.3333333",
  "lng": "-1.5333333",
  "url": "coquet-island-tide-times"
}, {
  "slug": "amble",
  "name": "Amble",
  "lat": "55.3333333",
  "lng": "-1.5666667",
  "url": "amble-tide-times"
}, {
  "slug": "north-sunderland-northumberland",
  "name": "North Sunderland (Northumberland)",
  "lat": "55.5833333",
  "lng": "-1.6500000",
  "url": "north-sunderland-northumberland-tide-times"
}, {
  "slug": "holy-island",
  "name": "Holy Island",
  "lat": "55.6666667",
  "lng": "-1.8000000",
  "url": "holy-island-tide-times"
}, {
  "slug": "berwick",
  "name": "Berwick",
  "lat": "55.7666667",
  "lng": "-1.9833333",
  "url": "berwick-tide-times"
}, {
  "slug": "eyemouth",
  "name": "Eyemouth",
  "lat": "55.8666667",
  "lng": "-2.0833333",
  "url": "eyemouth-tide-times"
}, {
  "slug": "dunbar",
  "name": "Dunbar",
  "lat": "56.0000000",
  "lng": "-2.5166667",
  "url": "dunbar-tide-times"
}, {
  "slug": "fidra",
  "name": "Fidra",
  "lat": "56.0666667",
  "lng": "-2.7833333",
  "url": "fidra-tide-times"
}, {
  "slug": "cockenzie",
  "name": "Cockenzie",
  "lat": "55.9666667",
  "lng": "-2.9500000",
  "url": "cockenzie-tide-times"
}, {
  "slug": "leith",
  "name": "Leith",
  "lat": "55.9833333",
  "lng": "-3.1833333",
  "url": "leith-tide-times"
}, {
  "slug": "granton",
  "name": "Granton",
  "lat": "55.9833333",
  "lng": "-3.2166667",
  "url": "granton-tide-times"
}, {
  "slug": "rosyth",
  "name": "Rosyth",
  "lat": "56.0166667",
  "lng": "-3.4500000",
  "url": "rosyth-tide-times"
}, {
  "slug": "grangemouth",
  "name": "Grangemouth",
  "lat": "56.0333333",
  "lng": "-3.6833333",
  "url": "grangemouth-tide-times"
}, {
  "slug": "kincardine",
  "name": "Kincardine",
  "lat": "56.0666667",
  "lng": "-3.7166667",
  "url": "kincardine-tide-times"
}, {
  "slug": "alloa",
  "name": "Alloa",
  "lat": "56.1000000",
  "lng": "-3.8000000",
  "url": "alloa-tide-times"
}, {
  "slug": "stirling",
  "name": "Stirling",
  "lat": "56.1166667",
  "lng": "-3.9333333",
  "url": "stirling-tide-times"
}, {
  "slug": "burntisland",
  "name": "Burntisland",
  "lat": "56.0500000",
  "lng": "-3.2333333",
  "url": "burntisland-tide-times"
}, {
  "slug": "kirkcaldy",
  "name": "Kirkcaldy",
  "lat": "56.1500000",
  "lng": "-3.1500000",
  "url": "kirkcaldy-tide-times"
}, {
  "slug": "methil",
  "name": "Methil",
  "lat": "56.1833333",
  "lng": "-3.0000000",
  "url": "methil-tide-times"
}, {
  "slug": "anstruther-easter",
  "name": "Anstruther Easter",
  "lat": "56.2166667",
  "lng": "-2.7000000",
  "url": "anstruther-easter-tide-times"
}, {
  "slug": "river-tay-bar",
  "name": "River Tay Bar",
  "lat": "56.4666667",
  "lng": "-2.6333333",
  "url": "river-tay-bar-tide-times"
}, {
  "slug": "dundee",
  "name": "Dundee",
  "lat": "56.4500000",
  "lng": "-2.9666667",
  "url": "dundee-tide-times"
}, {
  "slug": "newburgh",
  "name": "Newburgh",
  "lat": "56.3500000",
  "lng": "-3.2333333",
  "url": "newburgh-tide-times"
}, {
  "slug": "perth",
  "name": "Perth",
  "lat": "56.4000000",
  "lng": "-3.4166667",
  "url": "perth-tide-times"
}, {
  "slug": "arbroath",
  "name": "Arbroath",
  "lat": "56.5500000",
  "lng": "-2.5833333",
  "url": "arbroath-tide-times"
}, {
  "slug": "montrose",
  "name": "Montrose",
  "lat": "56.7000000",
  "lng": "-2.4500000",
  "url": "montrose-tide-times"
}, {
  "slug": "stonehaven",
  "name": "Stonehaven",
  "lat": "56.9666667",
  "lng": "-2.2000000",
  "url": "stonehaven-tide-times"
}, {
  "slug": "aberdeen",
  "name": "Aberdeen",
  "lat": "57.1500000",
  "lng": "-2.0666667",
  "url": "aberdeen-tide-times"
}, {
  "slug": "peterhead",
  "name": "Peterhead",
  "lat": "57.5000000",
  "lng": "-1.7666667",
  "url": "peterhead-tide-times"
}, {
  "slug": "fraserburgh",
  "name": "Fraserburgh",
  "lat": "57.6833333",
  "lng": "-2.0000000",
  "url": "fraserburgh-tide-times"
}, {
  "slug": "banff",
  "name": "Banff",
  "lat": "57.6666667",
  "lng": "-2.5166667",
  "url": "banff-tide-times"
}, {
  "slug": "whitehills",
  "name": "Whitehills",
  "lat": "57.6833333",
  "lng": "-2.5833333",
  "url": "whitehills-tide-times"
}, {
  "slug": "buckie",
  "name": "Buckie",
  "lat": "57.6833333",
  "lng": "-2.9500000",
  "url": "buckie-tide-times"
}, {
  "slug": "lossiemouth",
  "name": "Lossiemouth",
  "lat": "57.7166667",
  "lng": "-3.3000000",
  "url": "lossiemouth-tide-times"
}, {
  "slug": "burghead",
  "name": "Burghead",
  "lat": "57.7000000",
  "lng": "-3.5000000",
  "url": "burghead-tide-times"
}, {
  "slug": "nairn",
  "name": "Nairn",
  "lat": "57.6000000",
  "lng": "-3.8666667",
  "url": "nairn-tide-times"
}, {
  "slug": "mcdermott-base",
  "name": "Whiteness Head",
  "lat": "57.6000000",
  "lng": "-4.0000000",
  "url": "mcdermott-base-tide-times"
}, {
  "slug": "fortrose",
  "name": "Fortrose",
  "lat": "57.5833333",
  "lng": "-4.1333333",
  "url": "fortrose-tide-times"
}, {
  "slug": "inverness",
  "name": "Inverness",
  "lat": "57.5000000",
  "lng": "-4.2333333",
  "url": "inverness-tide-times"
}, {
  "slug": "cromarty",
  "name": "Cromarty",
  "lat": "57.7000000",
  "lng": "-4.0500000",
  "url": "cromarty-tide-times"
}, {
  "slug": "invergordon",
  "name": "Invergordon",
  "lat": "57.6833333",
  "lng": "-4.1666667",
  "url": "invergordon-tide-times"
}, {
  "slug": "dingwall-cromarty-firth",
  "name": "Dingwall (Cromarty Firth)",
  "lat": "57.6000000",
  "lng": "-4.4166667",
  "url": "dingwall-cromarty-firth-tide-times"
}, {
  "slug": "portmahomack",
  "name": "Portmahomack",
  "lat": "57.8333333",
  "lng": "-3.8333333",
  "url": "portmahomack-tide-times"
}, {
  "slug": "meikle-ferry",
  "name": "Meikle Ferry",
  "lat": "57.8500000",
  "lng": "-4.1333333",
  "url": "meikle-ferry-tide-times"
}, {
  "slug": "golspie",
  "name": "Golspie",
  "lat": "57.9666667",
  "lng": "-3.9833333",
  "url": "golspie-tide-times"
}, {
  "slug": "helmsdale",
  "name": "Helmsdale",
  "lat": "58.1166667",
  "lng": "-3.6500000",
  "url": "helmsdale-tide-times"
}, {
  "slug": "wick",
  "name": "Wick",
  "lat": "58.4333333",
  "lng": "-3.0833333",
  "url": "wick-tide-times"
}, {
  "slug": "duncansby-head",
  "name": "Duncansby Head",
  "lat": "58.6500000",
  "lng": "-3.0333333",
  "url": "duncansby-head-tide-times"
}, {
  "slug": "muckle-skerry",
  "name": "Muckle Skerry",
  "lat": "58.6833333",
  "lng": "-2.9166667",
  "url": "muckle-skerry-tide-times"
}, {
  "slug": "burray-ness",
  "name": "Burray Ness",
  "lat": "58.8500000",
  "lng": "-2.8666667",
  "url": "burray-ness-tide-times"
}, {
  "slug": "deer-sound",
  "name": "Deer Sound",
  "lat": "58.9666667",
  "lng": "-2.8333333",
  "url": "deer-sound-tide-times"
}, {
  "slug": "kirkwall",
  "name": "Kirkwall",
  "lat": "58.9833333",
  "lng": "-2.9666667",
  "url": "kirkwall-tide-times"
}, {
  "slug": "egilsay",
  "name": "Egilsay",
  "lat": "59.1500000",
  "lng": "-2.9500000",
  "url": "egilsay-tide-times"
}, {
  "slug": "whitehall",
  "name": "Whitehall",
  "lat": "59.1500000",
  "lng": "-2.6000000",
  "url": "whitehall-tide-times"
}, {
  "slug": "loth",
  "name": "Loth",
  "lat": "59.1833333",
  "lng": "-2.7000000",
  "url": "loth-tide-times"
}, {
  "slug": "kettletoft-pier",
  "name": "Kettletoft Pier",
  "lat": "59.2333333",
  "lng": "-2.6000000",
  "url": "kettletoft-pier-tide-times"
}, {
  "slug": "rapness",
  "name": "Rapness",
  "lat": "59.2500000",
  "lng": "-2.8666667",
  "url": "rapness-tide-times"
}, {
  "slug": "pierowall",
  "name": "Pierowall",
  "lat": "59.3166667",
  "lng": "-2.9833333",
  "url": "pierowall-tide-times"
}, {
  "slug": "tingwall",
  "name": "Tingwall",
  "lat": "59.0833333",
  "lng": "-3.0500000",
  "url": "tingwall-tide-times"
}, {
  "slug": "stromness",
  "name": "Stromness",
  "lat": "58.9666667",
  "lng": "-3.3000000",
  "url": "stromness-tide-times"
}, {
  "slug": "st-marys-scapa-flow",
  "name": "St. Mary's (Scapa Flow)",
  "lat": "58.9000000",
  "lng": "-2.9166667",
  "url": "st-marys-scapa-flow-tide-times"
}, {
  "slug": "widewall-bay",
  "name": "Widewall Bay",
  "lat": "58.8166667",
  "lng": "-3.0166667",
  "url": "widewall-bay-tide-times"
}, {
  "slug": "bur-wick",
  "name": "Bur Wick",
  "lat": "58.7333333",
  "lng": "-2.9666667",
  "url": "bur-wick-tide-times"
}, {
  "slug": "fair-isle",
  "name": "Fair Isle",
  "lat": "59.5333333",
  "lng": "-1.6000000",
  "url": "fair-isle-tide-times"
}, {
  "slug": "sumburgh-grutness-voe",
  "name": "Sumburgh (Grutness Voe)",
  "lat": "59.8833333",
  "lng": "-1.2833333",
  "url": "sumburgh-grutness-voe-tide-times"
}, {
  "slug": "lerwick",
  "name": "Lerwick",
  "lat": "60.1500000",
  "lng": "-1.1333333",
  "url": "lerwick-tide-times"
}, {
  "slug": "dury-voe",
  "name": "Dury Voe",
  "lat": "60.3500000",
  "lng": "-1.1666667",
  "url": "dury-voe-tide-times"
}, {
  "slug": "out-skerries",
  "name": "Out Skerries",
  "lat": "60.4166667",
  "lng": "-0.7500000",
  "url": "out-skerries-tide-times"
}, {
  "slug": "toft-pier",
  "name": "Toft Pier",
  "lat": "60.4666667",
  "lng": "-1.2000000",
  "url": "toft-pier-tide-times"
}, {
  "slug": "burra-voe-yell-sound",
  "name": "Burra Voe (Yell Sound)",
  "lat": "60.5000000",
  "lng": "-1.0500000",
  "url": "burra-voe-yell-sound-tide-times"
}, {
  "slug": "mid-yell",
  "name": "Mid Yell",
  "lat": "60.6000000",
  "lng": "-1.0500000",
  "url": "mid-yell-tide-times"
}, {
  "slug": "baltasound-pier",
  "name": "Baltasound Pier",
  "lat": "60.7500000",
  "lng": "-0.8333333",
  "url": "baltasound-pier-tide-times"
}, {
  "slug": "burra-firth",
  "name": "Burra Firth",
  "lat": "60.8000000",
  "lng": "-0.8666667",
  "url": "burra-firth-tide-times"
}, {
  "slug": "bluemull-sound",
  "name": "Cullivoe (Bluemull Sound)",
  "lat": "60.7000000",
  "lng": "-1.0000000",
  "url": "bluemull-sound-tide-times"
}, {
  "slug": "sullom-voe",
  "name": "Sullom Voe",
  "lat": "60.4500000",
  "lng": "-1.3000000",
  "url": "sullom-voe-tide-times"
}, {
  "slug": "esha-ness-hamna-voe",
  "name": "Esha Ness (Hamna Voe)",
  "lat": "60.5000000",
  "lng": "-1.5666667",
  "url": "esha-ness-hamna-voe-tide-times"
}, {
  "slug": "hillswick",
  "name": "Hillswick",
  "lat": "60.4833333",
  "lng": "-1.4833333",
  "url": "hillswick-tide-times"
}, {
  "slug": "west-burra-firth",
  "name": "West Burra Firth",
  "lat": "60.3000000",
  "lng": "-1.5333333",
  "url": "west-burra-firth-tide-times"
}, {
  "slug": "scalloway",
  "name": "Scalloway",
  "lat": "60.1333333",
  "lng": "-1.2666667",
  "url": "scalloway-tide-times"
}, {
  "slug": "bay-of-quendale",
  "name": "Bay Of Quendale",
  "lat": "59.9000000",
  "lng": "-1.3500000",
  "url": "bay-of-quendale-tide-times"
}, {
  "slug": "foula",
  "name": "Foula",
  "lat": "60.1166667",
  "lng": "-2.0500000",
  "url": "foula-tide-times"
}, {
  "slug": "stroma",
  "name": "Stroma",
  "lat": "58.6666667",
  "lng": "-3.1333333",
  "url": "stroma-tide-times"
}, {
  "slug": "gills-bay",
  "name": "Gills Bay",
  "lat": "58.6333333",
  "lng": "-3.1666667",
  "url": "gills-bay-tide-times"
}, {
  "slug": "scrabster",
  "name": "Scrabster",
  "lat": "58.6166667",
  "lng": "-3.5500000",
  "url": "scrabster-tide-times"
}, {
  "slug": "sule-skerry",
  "name": "Sule Skerry",
  "lat": "59.0833333",
  "lng": "-4.4000000",
  "url": "sule-skerry-tide-times"
}, {
  "slug": "portnancon",
  "name": "Portnancon",
  "lat": "58.5000000",
  "lng": "-4.7000000",
  "url": "portnancon-tide-times"
}, {
  "slug": "kyle-of-durness",
  "name": "Kyle Of Durness",
  "lat": "58.6000000",
  "lng": "-4.7833333",
  "url": "kyle-of-durness-tide-times"
}, {
  "slug": "rona",
  "name": "Rona",
  "lat": "59.1333333",
  "lng": "-5.8166667",
  "url": "rona-tide-times"
}, {
  "slug": "stornoway",
  "name": "Stornoway",
  "lat": "58.2000000",
  "lng": "-6.3833333",
  "url": "stornoway-tide-times"
}, {
  "slug": "loch-shell",
  "name": "Loch Shell",
  "lat": "58.0000000",
  "lng": "-6.4166667",
  "url": "loch-shell-tide-times"
}, {
  "slug": "e-loch-tarbert",
  "name": "E. Loch Tarbert",
  "lat": "57.9000000",
  "lng": "-6.8000000",
  "url": "e-loch-tarbert-tide-times"
}, {
  "slug": "leverburgh",
  "name": "Leverburgh",
  "lat": "57.7666667",
  "lng": "-7.0333333",
  "url": "leverburgh-tide-times"
}, {
  "slug": "bays-loch",
  "name": "Bays Loch",
  "lat": "57.7166667",
  "lng": "-7.1666667",
  "url": "bays-loch-tide-times"
}, {
  "slug": "loch-maddy",
  "name": "Loch Maddy",
  "lat": "57.6000000",
  "lng": "-7.1500000",
  "url": "loch-maddy-tide-times"
}, {
  "slug": "loch-carnan",
  "name": "Loch Carnan",
  "lat": "57.3666667",
  "lng": "-7.2666667",
  "url": "loch-carnan-tide-times"
}, {
  "slug": "loch-skiport",
  "name": "Loch Skiport",
  "lat": "57.3333333",
  "lng": "-7.2666667",
  "url": "loch-skiport-tide-times"
}, {
  "slug": "loch-boisdale",
  "name": "Loch Boisdale",
  "lat": "57.1500000",
  "lng": "-7.2666667",
  "url": "loch-boisdale-tide-times"
}, {
  "slug": "barra-north-bay",
  "name": "Barra (North Bay)",
  "lat": "57.0000000",
  "lng": "-7.4000000",
  "url": "barra-north-bay-tide-times"
}, {
  "slug": "castle-bay",
  "name": "Castle Bay",
  "lat": "56.9500000",
  "lng": "-7.4833333",
  "url": "castle-bay-tide-times"
}, {
  "slug": "barra-head",
  "name": "Barra Head",
  "lat": "56.7833333",
  "lng": "-7.6333333",
  "url": "barra-head-tide-times"
}, {
  "slug": "shillay",
  "name": "Shillay",
  "lat": "57.5333333",
  "lng": "-7.7000000",
  "url": "shillay-tide-times"
}, {
  "slug": "balivanich",
  "name": "Balivanich",
  "lat": "57.4833333",
  "lng": "-7.3833333",
  "url": "balivanich-tide-times"
}, {
  "slug": "scolpaig",
  "name": "Scolpaig",
  "lat": "57.6500000",
  "lng": "-7.4833333",
  "url": "scolpaig-tide-times"
}, {
  "slug": "west-loch-tarbert",
  "name": "West Loch Tarbert",
  "lat": "57.9166667",
  "lng": "-6.9166667",
  "url": "west-loch-tarbert-tide-times"
}, {
  "slug": "little-bernera",
  "name": "Little Bernera",
  "lat": "58.2666667",
  "lng": "-6.8666667",
  "url": "little-bernera-tide-times"
}, {
  "slug": "carloway",
  "name": "Carloway",
  "lat": "58.2833333",
  "lng": "-6.7833333",
  "url": "carloway-tide-times"
}, {
  "slug": "st-kilda",
  "name": "Hirta (Bagh A' Bhaile)",
  "lat": "57.8000000",
  "lng": "-8.5666667",
  "url": "st-kilda-tide-times"
}, {
  "slug": "flannan-isles",
  "name": "Flannan Isles",
  "lat": "58.2833333",
  "lng": "-7.5833333",
  "url": "flannan-isles-tide-times"
}, {
  "slug": "rockall",
  "name": "Rockall",
  "lat": "57.6000000",
  "lng": "-13.6833333",
  "url": "rockall-tide-times"
}, {
  "slug": "kinlochbervie",
  "name": "Kinlochbervie",
  "lat": "58.4500000",
  "lng": "-5.0500000",
  "url": "kinlochbervie-tide-times"
}, {
  "slug": "loch-laxford",
  "name": "Loch Laxford",
  "lat": "58.4000000",
  "lng": "-5.0833333",
  "url": "loch-laxford-tide-times"
}, {
  "slug": "badcall-bay",
  "name": "Badcall Bay",
  "lat": "58.3166667",
  "lng": "-5.1333333",
  "url": "badcall-bay-tide-times"
}, {
  "slug": "loch-nedd",
  "name": "Loch Nedd",
  "lat": "58.2333333",
  "lng": "-5.1666667",
  "url": "loch-nedd-tide-times"
}, {
  "slug": "loch-inver",
  "name": "Loch Inver",
  "lat": "58.1500000",
  "lng": "-5.3000000",
  "url": "loch-inver-tide-times"
}, {
  "slug": "tanera-mor",
  "name": "Tanera Mor",
  "lat": "58.0166667",
  "lng": "-5.4000000",
  "url": "tanera-mor-tide-times"
}, {
  "slug": "ullapool",
  "name": "Ullapool",
  "lat": "57.9000000",
  "lng": "-5.1500000",
  "url": "ullapool-tide-times"
}, {
  "slug": "mellon-charles",
  "name": "Mellon Charles",
  "lat": "57.8500000",
  "lng": "-5.6333333",
  "url": "mellon-charles-tide-times"
}, {
  "slug": "nato-jetty",
  "name": "Nato Jetty",
  "lat": "57.8333333",
  "lng": "-5.5833333",
  "url": "nato-jetty-tide-times"
}, {
  "slug": "gairloch",
  "name": "Gairloch",
  "lat": "57.7166667",
  "lng": "-5.6833333",
  "url": "gairloch-tide-times"
}, {
  "slug": "shieldaig",
  "name": "Shieldaig",
  "lat": "57.5166667",
  "lng": "-5.6500000",
  "url": "shieldaig-tide-times"
}, {
  "slug": "applecross",
  "name": "Applecross",
  "lat": "57.4333333",
  "lng": "-5.8166667",
  "url": "applecross-tide-times"
}, {
  "slug": "plockton",
  "name": "Plockton",
  "lat": "57.3500000",
  "lng": "-5.6500000",
  "url": "plockton-tide-times"
}, {
  "slug": "loch-a-bhraige",
  "name": "Loch A' Bhraige",
  "lat": "57.5833333",
  "lng": "-5.9666667",
  "url": "loch-a-bhraige-tide-times"
}, {
  "slug": "broadford-bay",
  "name": "Broadford Bay",
  "lat": "57.2500000",
  "lng": "-5.9000000",
  "url": "broadford-bay-tide-times"
}, {
  "slug": "portree",
  "name": "Portree",
  "lat": "57.4000000",
  "lng": "-6.1833333",
  "url": "portree-tide-times"
}, {
  "slug": "loch-snizort-uig-bay",
  "name": "Loch Snizort (Uig Bay)",
  "lat": "57.5833333",
  "lng": "-6.3666667",
  "url": "loch-snizort-uig-bay-tide-times"
}, {
  "slug": "loch-dunvegan",
  "name": "Loch Dunvegan",
  "lat": "57.4500000",
  "lng": "-6.6333333",
  "url": "loch-dunvegan-tide-times"
}, {
  "slug": "loch-harport",
  "name": "Loch Harport",
  "lat": "57.3333333",
  "lng": "-6.4166667",
  "url": "loch-harport-tide-times"
}, {
  "slug": "camus-nan-gall",
  "name": "Camus Nan Gall",
  "lat": "57.1500000",
  "lng": "-6.2166667",
  "url": "camus-nan-gall-tide-times"
}, {
  "slug": "kyle-of-lochalsh",
  "name": "Kyle Of Lochalsh",
  "lat": "57.2833333",
  "lng": "-5.7166667",
  "url": "kyle-of-lochalsh-tide-times"
}, {
  "slug": "dornie-bridge",
  "name": "Dornie Bridge",
  "lat": "57.2833333",
  "lng": "-5.5166667",
  "url": "dornie-bridge-tide-times"
}, {
  "slug": "glenelg-bay",
  "name": "Glenelg Bay",
  "lat": "57.2166667",
  "lng": "-5.6333333",
  "url": "glenelg-bay-tide-times"
}, {
  "slug": "loch-hourn",
  "name": "Loch Hourn",
  "lat": "57.1000000",
  "lng": "-5.5666667",
  "url": "loch-hourn-tide-times"
}, {
  "slug": "inverie-bay",
  "name": "Inverie Bay",
  "lat": "57.0333333",
  "lng": "-5.6833333",
  "url": "inverie-bay-tide-times"
}, {
  "slug": "mallaig",
  "name": "Mallaig",
  "lat": "57.0000000",
  "lng": "-5.8333333",
  "url": "mallaig-tide-times"
}, {
  "slug": "loch-scresort",
  "name": "Loch Scresort",
  "lat": "57.0166667",
  "lng": "-6.2666667",
  "url": "loch-scresort-tide-times"
}, {
  "slug": "bay-of-laig",
  "name": "Bay Of Laig",
  "lat": "56.9166667",
  "lng": "-6.1666667",
  "url": "bay-of-laig-tide-times"
}, {
  "slug": "galmisdale-pier",
  "name": "Galmisdale Pier",
  "lat": "56.8833333",
  "lng": "-6.1333333",
  "url": "galmisdale-pier-tide-times"
}, {
  "slug": "loch-moidart",
  "name": "Loch Moidart",
  "lat": "56.7833333",
  "lng": "-5.8833333",
  "url": "loch-moidart-tide-times"
}, {
  "slug": "loch-eatharna",
  "name": "Loch Eatharna",
  "lat": "56.6166667",
  "lng": "-6.5166667",
  "url": "loch-eatharna-tide-times"
}, {
  "slug": "gott-bay",
  "name": "Gott Bay",
  "lat": "56.5166667",
  "lng": "-6.8000000",
  "url": "gott-bay-tide-times"
}, {
  "slug": "carsaig-bay-mull",
  "name": "Carsaig Bay (Mull)",
  "lat": "56.3166667",
  "lng": "-5.9666667",
  "url": "carsaig-bay-mull-tide-times"
}, {
  "slug": "iona",
  "name": "Iona",
  "lat": "56.3333333",
  "lng": "-6.3833333",
  "url": "iona-tide-times"
}, {
  "slug": "bunessan",
  "name": "Bunessan",
  "lat": "56.3166667",
  "lng": "-6.2333333",
  "url": "bunessan-tide-times"
}, {
  "slug": "sound-of-ulva",
  "name": "Sound Of Ulva",
  "lat": "56.4833333",
  "lng": "-6.1333333",
  "url": "sound-of-ulva-tide-times"
}, {
  "slug": "salen",
  "name": "Salen",
  "lat": "56.7166667",
  "lng": "-5.7833333",
  "url": "salen-tide-times"
}, {
  "slug": "tobermory",
  "name": "Tobermory",
  "lat": "56.6166667",
  "lng": "-6.0666667",
  "url": "tobermory-tide-times"
}, {
  "slug": "salen-sound-of-mull",
  "name": "Salen (Sound Of Mull)",
  "lat": "56.5166667",
  "lng": "-5.9500000",
  "url": "salen-sound-of-mull-tide-times"
}, {
  "slug": "loch-aline",
  "name": "Loch Aline",
  "lat": "56.5333333",
  "lng": "-5.7666667",
  "url": "loch-aline-tide-times"
}, {
  "slug": "craignure",
  "name": "Craignure",
  "lat": "56.4666667",
  "lng": "-5.7000000",
  "url": "craignure-tide-times"
}, {
  "slug": "corran",
  "name": "Corran",
  "lat": "56.7166667",
  "lng": "-5.2333333",
  "url": "corran-tide-times"
}, {
  "slug": "corpach",
  "name": "Corpach",
  "lat": "56.8500000",
  "lng": "-5.1166667",
  "url": "corpach-tide-times"
}, {
  "slug": "loch-eil-head",
  "name": "Loch Eil Head",
  "lat": "56.8500000",
  "lng": "-5.3333333",
  "url": "loch-eil-head-tide-times"
}, {
  "slug": "loch-leven-head",
  "name": "Loch Leven Head",
  "lat": "56.7166667",
  "lng": "-5.0000000",
  "url": "loch-leven-head-tide-times"
}, {
  "slug": "port-appin",
  "name": "Port Appin",
  "lat": "56.5500000",
  "lng": "-5.4166667",
  "url": "port-appin-tide-times"
}, {
  "slug": "barcaldine-pier",
  "name": "Barcaldine Pier",
  "lat": "56.5333333",
  "lng": "-5.3166667",
  "url": "barcaldine-pier-tide-times"
}, {
  "slug": "loch-creran-head",
  "name": "Loch Creran Head",
  "lat": "56.5500000",
  "lng": "-5.2666667",
  "url": "loch-creran-head-tide-times"
}, {
  "slug": "dunstaffnage-bay",
  "name": "Dunstaffnage Bay",
  "lat": "56.4500000",
  "lng": "-5.4333333",
  "url": "dunstaffnage-bay-tide-times"
}, {
  "slug": "connel",
  "name": "Connel",
  "lat": "56.4500000",
  "lng": "-5.4000000",
  "url": "connel-tide-times"
}, {
  "slug": "bonawe",
  "name": "Bonawe",
  "lat": "56.4500000",
  "lng": "-5.2166667",
  "url": "bonawe-tide-times"
}, {
  "slug": "oban",
  "name": "Oban",
  "lat": "56.4166667",
  "lng": "-5.4833333",
  "url": "oban-tide-times"
}, {
  "slug": "seil-sound",
  "name": "Seil Sound",
  "lat": "56.3000000",
  "lng": "-5.5833333",
  "url": "seil-sound-tide-times"
}, {
  "slug": "scalasaig",
  "name": "Scalasaig",
  "lat": "56.0666667",
  "lng": "-6.1833333",
  "url": "scalasaig-tide-times"
}, {
  "slug": "glengarrisdale-bay",
  "name": "Glengarrisdale Bay",
  "lat": "56.1166667",
  "lng": "-5.7833333",
  "url": "glengarrisdale-bay-tide-times"
}, {
  "slug": "rubh-a-mhail",
  "name": "Rubh' A' Mhail",
  "lat": "55.9333333",
  "lng": "-6.1166667",
  "url": "rubh-a-mhail-tide-times"
}, {
  "slug": "ardnave-point",
  "name": "Ardnave Point",
  "lat": "55.8666667",
  "lng": "-6.3333333",
  "url": "ardnave-point-tide-times"
}, {
  "slug": "orsay",
  "name": "Orsay",
  "lat": "55.6833333",
  "lng": "-6.5166667",
  "url": "orsay-tide-times"
}, {
  "slug": "bruichladdich",
  "name": "Bruichladdich",
  "lat": "55.7666667",
  "lng": "-6.3666667",
  "url": "bruichladdich-tide-times"
}, {
  "slug": "port-ellen",
  "name": "Port Ellen",
  "lat": "55.6333333",
  "lng": "-6.1833333",
  "url": "port-ellen-tide-times"
}, {
  "slug": "port-askaig",
  "name": "Port Askaig",
  "lat": "55.8500000",
  "lng": "-6.1000000",
  "url": "port-askaig-tide-times"
}, {
  "slug": "craighouse",
  "name": "Craighouse",
  "lat": "55.8333333",
  "lng": "-5.9500000",
  "url": "craighouse-tide-times"
}, {
  "slug": "loch-melfort",
  "name": "Loch Melfort",
  "lat": "56.2500000",
  "lng": "-5.4833333",
  "url": "loch-melfort-tide-times"
}, {
  "slug": "loch-beag",
  "name": "Loch Beag",
  "lat": "56.1500000",
  "lng": "-5.6000000",
  "url": "loch-beag-tide-times"
}, {
  "slug": "carsaig-bay",
  "name": "Carsaig Bay",
  "lat": "56.0333333",
  "lng": "-5.6333333",
  "url": "carsaig-bay-tide-times"
}, {
  "slug": "sound-of-gigha",
  "name": "Sound Of Gigha",
  "lat": "55.6833333",
  "lng": "-5.7333333",
  "url": "sound-of-gigha-tide-times"
}, {
  "slug": "machrihanish",
  "name": "Machrihanish",
  "lat": "55.4166667",
  "lng": "-5.7500000",
  "url": "machrihanish-tide-times"
}, {
  "slug": "southend-kintyre",
  "name": "Southend (Kintyre)",
  "lat": "55.3166667",
  "lng": "-5.6333333",
  "url": "southend-kintyre-tide-times"
}, {
  "slug": "campbeltown",
  "name": "Campbeltown",
  "lat": "55.4166667",
  "lng": "-5.6000000",
  "url": "campbeltown-tide-times"
}, {
  "slug": "carradale",
  "name": "Carradale",
  "lat": "55.6000000",
  "lng": "-5.4666667",
  "url": "carradale-tide-times"
}, {
  "slug": "loch-ranza",
  "name": "Loch Ranza",
  "lat": "55.7166667",
  "lng": "-5.3000000",
  "url": "loch-ranza-tide-times"
}, {
  "slug": "east-loch-tarbert",
  "name": "East Loch Tarbert",
  "lat": "55.8666667",
  "lng": "-5.4000000",
  "url": "east-loch-tarbert-tide-times"
}, {
  "slug": "inveraray",
  "name": "Inveraray",
  "lat": "56.2333333",
  "lng": "-5.0666667",
  "url": "inveraray-tide-times"
}, {
  "slug": "rubha-a-bhodaich",
  "name": "Rubha A' Bhodaich",
  "lat": "55.9166667",
  "lng": "-5.1500000",
  "url": "rubha-a-bhodaich-tide-times"
}, {
  "slug": "tighnabruaich",
  "name": "Tighnabruaich",
  "lat": "55.9166667",
  "lng": "-5.2166667",
  "url": "tighnabruaich-tide-times"
}, {
  "slug": "millport",
  "name": "Millport",
  "lat": "55.7500000",
  "lng": "-4.9333333",
  "url": "millport-tide-times"
}, {
  "slug": "rothesay-bay",
  "name": "Rothesay Bay",
  "lat": "55.8333333",
  "lng": "-5.0500000",
  "url": "rothesay-bay-tide-times"
}, {
  "slug": "wemyss-bay",
  "name": "Wemyss Bay",
  "lat": "55.8833333",
  "lng": "-4.8833333",
  "url": "wemyss-bay-tide-times"
}, {
  "slug": "coulport",
  "name": "Coulport",
  "lat": "56.0500000",
  "lng": "-4.8833333",
  "url": "coulport-tide-times"
}, {
  "slug": "lochgoilhead",
  "name": "Lochgoilhead",
  "lat": "56.1666667",
  "lng": "-4.9000000",
  "url": "lochgoilhead-tide-times"
}, {
  "slug": "arrochar",
  "name": "Arrochar",
  "lat": "56.2000000",
  "lng": "-4.7500000",
  "url": "arrochar-tide-times"
}, {
  "slug": "rosneath",
  "name": "Rosneath",
  "lat": "56.0000000",
  "lng": "-4.7833333",
  "url": "rosneath-tide-times"
}, {
  "slug": "rhu-marina",
  "name": "Rhu Marina",
  "lat": "56.0166667",
  "lng": "-4.7666667",
  "url": "rhu-marina-tide-times"
}, {
  "slug": "faslane",
  "name": "Faslane",
  "lat": "56.0666667",
  "lng": "-4.8166667",
  "url": "faslane-tide-times"
}, {
  "slug": "garelochhead",
  "name": "Garelochhead",
  "lat": "56.0833333",
  "lng": "-4.8333333",
  "url": "garelochhead-tide-times"
}, {
  "slug": "helensburgh",
  "name": "Helensburgh",
  "lat": "56.0000000",
  "lng": "-4.7333333",
  "url": "helensburgh-tide-times"
}, {
  "slug": "greenock",
  "name": "Greenock",
  "lat": "55.9500000",
  "lng": "-4.7666667",
  "url": "greenock-tide-times"
}, {
  "slug": "port-glasgow",
  "name": "Port Glasgow",
  "lat": "55.9333333",
  "lng": "-4.6833333",
  "url": "port-glasgow-tide-times"
}, {
  "slug": "bowling",
  "name": "Bowling",
  "lat": "55.9333333",
  "lng": "-4.4833333",
  "url": "bowling-tide-times"
}, {
  "slug": "clydebank-rothesay-dock",
  "name": "Clydebank (Rothesay Dock)",
  "lat": "55.9000000",
  "lng": "-4.4000000",
  "url": "clydebank-rothesay-dock-tide-times"
}, {
  "slug": "glasgow",
  "name": "Glasgow",
  "lat": "55.8500000",
  "lng": "-4.2666667",
  "url": "glasgow-tide-times"
}, {
  "slug": "brodick-bay",
  "name": "Brodick Bay",
  "lat": "55.5833333",
  "lng": "-5.1333333",
  "url": "brodick-bay-tide-times"
}, {
  "slug": "lamlash",
  "name": "Lamlash",
  "lat": "55.5333333",
  "lng": "-5.1166667",
  "url": "lamlash-tide-times"
}, {
  "slug": "ardrossan",
  "name": "Ardrossan",
  "lat": "55.6333333",
  "lng": "-4.8166667",
  "url": "ardrossan-tide-times"
}, {
  "slug": "irvine",
  "name": "Irvine",
  "lat": "55.6000000",
  "lng": "-4.7000000",
  "url": "irvine-tide-times"
}, {
  "slug": "troon",
  "name": "Troon",
  "lat": "55.5500000",
  "lng": "-4.6833333",
  "url": "troon-tide-times"
}, {
  "slug": "ayr",
  "name": "Ayr",
  "lat": "55.4666667",
  "lng": "-4.6500000",
  "url": "ayr-tide-times"
}, {
  "slug": "girvan",
  "name": "Girvan",
  "lat": "55.2500000",
  "lng": "-4.8666667",
  "url": "girvan-tide-times"
}, {
  "slug": "stranraer",
  "name": "Stranraer",
  "lat": "54.9166667",
  "lng": "-5.0333333",
  "url": "stranraer-tide-times"
}, {
  "slug": "portpatrick",
  "name": "Portpatrick",
  "lat": "54.8500000",
  "lng": "-5.1166667",
  "url": "portpatrick-tide-times"
}, {
  "slug": "drummore",
  "name": "Drummore",
  "lat": "54.7000000",
  "lng": "-4.8833333",
  "url": "drummore-tide-times"
}, {
  "slug": "luce-bay-offshore-platform",
  "name": "Luce Bay (Offshore Platform)",
  "lat": "54.8333333",
  "lng": "-4.8833333",
  "url": "luce-bay-offshore-platform-tide-times"
}, {
  "slug": "port-william",
  "name": "Port William",
  "lat": "54.7666667",
  "lng": "-4.5833333",
  "url": "port-william-tide-times"
}, {
  "slug": "isle-of-whithorn",
  "name": "Isle Of Whithorn",
  "lat": "54.7000000",
  "lng": "-4.3666667",
  "url": "isle-of-whithorn-tide-times"
}, {
  "slug": "garlieston",
  "name": "Garlieston",
  "lat": "54.7833333",
  "lng": "-4.3666667",
  "url": "garlieston-tide-times"
}, {
  "slug": "kirkcudbright-bay",
  "name": "Kirkcudbright Bay",
  "lat": "54.8000000",
  "lng": "-4.0666667",
  "url": "kirkcudbright-bay-tide-times"
}, {
  "slug": "hestan-islet",
  "name": "Hestan Islet",
  "lat": "54.8333333",
  "lng": "-3.8000000",
  "url": "hestan-islet-tide-times"
}, {
  "slug": "southerness-point",
  "name": "Southerness Point",
  "lat": "54.8666667",
  "lng": "-3.6000000",
  "url": "southerness-point-tide-times"
}, {
  "slug": "annan-waterfoot",
  "name": "Annan Waterfoot",
  "lat": "54.9666667",
  "lng": "-3.2666667",
  "url": "annan-waterfoot-tide-times"
}, {
  "slug": "torduff-point",
  "name": "Torduff Point",
  "lat": "54.9666667",
  "lng": "-3.1500000",
  "url": "torduff-point-tide-times"
}, {
  "slug": "redkirk",
  "name": "Redkirk",
  "lat": "54.9833333",
  "lng": "-3.1000000",
  "url": "redkirk-tide-times"
}, {
  "slug": "silloth",
  "name": "Silloth",
  "lat": "54.8666667",
  "lng": "-3.4000000",
  "url": "silloth-tide-times"
}, {
  "slug": "maryport",
  "name": "Maryport",
  "lat": "54.7166667",
  "lng": "-3.5000000",
  "url": "maryport-tide-times"
}, {
  "slug": "workington",
  "name": "Workington",
  "lat": "54.6500000",
  "lng": "-3.5666667",
  "url": "workington-tide-times"
}, {
  "slug": "whitehaven",
  "name": "Whitehaven",
  "lat": "54.5500000",
  "lng": "-3.6000000",
  "url": "whitehaven-tide-times"
}, {
  "slug": "tarn-point",
  "name": "Tarn Point",
  "lat": "54.2833333",
  "lng": "-3.4166667",
  "url": "tarn-point-tide-times"
}, {
  "slug": "duddon-bar",
  "name": "Duddon Bar",
  "lat": "54.1500000",
  "lng": "-3.3333333",
  "url": "duddon-bar-tide-times"
}, {
  "slug": "barrow-ramsden-dock",
  "name": "Barrow (Ramsden Dock)",
  "lat": "54.1000000",
  "lng": "-3.2166667",
  "url": "barrow-ramsden-dock-tide-times"
}, {
  "slug": "roa-island",
  "name": "Roa Island",
  "lat": "54.0666667",
  "lng": "-3.1666667",
  "url": "roa-island-tide-times"
}, {
  "slug": "haws-point",
  "name": "Haws Point",
  "lat": "54.0500000",
  "lng": "-3.1666667",
  "url": "haws-point-tide-times"
}, {
  "slug": "halfway-shoal",
  "name": "Halfway Shoal",
  "lat": "54.0166667",
  "lng": "-3.2000000",
  "url": "halfway-shoal-tide-times"
}, {
  "slug": "ulverston",
  "name": "Ulverston",
  "lat": "54.1833333",
  "lng": "-3.0666667",
  "url": "ulverston-tide-times"
}, {
  "slug": "arnside",
  "name": "Arnside",
  "lat": "54.2000000",
  "lng": "-2.8500000",
  "url": "arnside-tide-times"
}, {
  "slug": "morecambe",
  "name": "Morecambe",
  "lat": "54.0666667",
  "lng": "-2.8833333",
  "url": "morecambe-tide-times"
}, {
  "slug": "heysham",
  "name": "Heysham",
  "lat": "54.0333333",
  "lng": "-2.9166667",
  "url": "heysham-tide-times"
}, {
  "slug": "glasson-dock",
  "name": "Glasson Dock",
  "lat": "54.0000000",
  "lng": "-2.8500000",
  "url": "glasson-dock-tide-times"
}, {
  "slug": "lancaster",
  "name": "Lancaster",
  "lat": "54.0500000",
  "lng": "-2.8166667",
  "url": "lancaster-tide-times"
}, {
  "slug": "wyre-lighthouse",
  "name": "Wyre Lighthouse",
  "lat": "53.9500000",
  "lng": "-3.0333333",
  "url": "wyre-lighthouse-tide-times"
}, {
  "slug": "fleetwood",
  "name": "Fleetwood",
  "lat": "53.9333333",
  "lng": "-3.0000000",
  "url": "fleetwood-tide-times"
}, {
  "slug": "blackpool",
  "name": "Blackpool",
  "lat": "53.8166667",
  "lng": "-3.0666667",
  "url": "blackpool-tide-times"
}, {
  "slug": "preston",
  "name": "Preston",
  "lat": "53.7500000",
  "lng": "-2.7500000",
  "url": "preston-tide-times"
}, {
  "slug": "southport",
  "name": "Southport",
  "lat": "53.6500000",
  "lng": "-3.0166667",
  "url": "southport-tide-times"
}, {
  "slug": "formby",
  "name": "Formby",
  "lat": "53.5333333",
  "lng": "-3.1166667",
  "url": "formby-tide-times"
}, {
  "slug": "liverpool-gladstone-dock",
  "name": "Liverpool (Gladstone Dock)",
  "lat": "53.4500000",
  "lng": "-3.0166667",
  "url": "liverpool-gladstone-dock-tide-times"
}, {
  "slug": "liverpool-alfred-dock",
  "name": "Seacombe (Alfred Dock)",
  "lat": "53.4000000",
  "lng": "-3.0166667",
  "url": "liverpool-alfred-dock-tide-times"
}, {
  "slug": "eastham",
  "name": "Eastham",
  "lat": "53.3166667",
  "lng": "-2.9500000",
  "url": "eastham-tide-times"
}, {
  "slug": "hale-head",
  "name": "Hale Head",
  "lat": "53.3166667",
  "lng": "-2.8000000",
  "url": "hale-head-tide-times"
}, {
  "slug": "widnes",
  "name": "Widnes",
  "lat": "53.3500000",
  "lng": "-2.7333333",
  "url": "widnes-tide-times"
}, {
  "slug": "fiddlers-ferry",
  "name": "Fiddler's Ferry",
  "lat": "53.3666667",
  "lng": "-2.6666667",
  "url": "fiddlers-ferry-tide-times"
}, {
  "slug": "hilbre-island",
  "name": "Hilbre Island",
  "lat": "53.3833333",
  "lng": "-3.2333333",
  "url": "hilbre-island-tide-times"
}, {
  "slug": "chester",
  "name": "Chester",
  "lat": "53.2000000",
  "lng": "-2.9000000",
  "url": "chester-tide-times"
}, {
  "slug": "connahs-quay",
  "name": "Connah's Quay",
  "lat": "53.2166667",
  "lng": "-3.0500000",
  "url": "connahs-quay-tide-times"
}, {
  "slug": "mostyn-docks",
  "name": "Mostyn Docks",
  "lat": "53.3166667",
  "lng": "-3.2666667",
  "url": "mostyn-docks-tide-times"
}, {
  "slug": "peel",
  "name": "Peel",
  "lat": "54.2333333",
  "lng": "-4.7000000",
  "url": "peel-tide-times"
}, {
  "slug": "ramsey",
  "name": "Ramsey",
  "lat": "54.3166667",
  "lng": "-4.3666667",
  "url": "ramsey-tide-times"
}, {
  "slug": "douglas",
  "name": "Douglas",
  "lat": "54.1500000",
  "lng": "-4.4666667",
  "url": "douglas-tide-times"
}, {
  "slug": "port-st-mary",
  "name": "Port St. Mary",
  "lat": "54.0666667",
  "lng": "-4.7333333",
  "url": "port-st-mary-tide-times"
}, {
  "slug": "calf-sound",
  "name": "Calf Sound",
  "lat": "54.0666667",
  "lng": "-4.8000000",
  "url": "calf-sound-tide-times"
}, {
  "slug": "port-erin",
  "name": "Port Erin",
  "lat": "54.0833333",
  "lng": "-4.7666667",
  "url": "port-erin-tide-times"
}, {
  "slug": "colwyn-bay",
  "name": "Colwyn Bay",
  "lat": "53.3000000",
  "lng": "-3.7166667",
  "url": "colwyn-bay-tide-times"
}, {
  "slug": "llandudno",
  "name": "Llandudno",
  "lat": "53.3333333",
  "lng": "-3.8333333",
  "url": "llandudno-tide-times"
}, {
  "slug": "conwy",
  "name": "Conwy",
  "lat": "53.2833333",
  "lng": "-3.8333333",
  "url": "conwy-tide-times"
}, {
  "slug": "beaumaris",
  "name": "Beaumaris",
  "lat": "53.2666667",
  "lng": "-4.0833333",
  "url": "beaumaris-tide-times"
}, {
  "slug": "menai-bridge",
  "name": "Menai Bridge",
  "lat": "53.2166667",
  "lng": "-4.1666667",
  "url": "menai-bridge-tide-times"
}, {
  "slug": "port-dinorwic",
  "name": "Port Dinorwic",
  "lat": "53.1833333",
  "lng": "-4.2166667",
  "url": "port-dinorwic-tide-times"
}, {
  "slug": "caernarfon",
  "name": "Caernarfon",
  "lat": "53.1500000",
  "lng": "-4.2666667",
  "url": "caernarfon-tide-times"
}, {
  "slug": "fort-belan",
  "name": "Fort Belan",
  "lat": "53.1166667",
  "lng": "-4.3333333",
  "url": "fort-belan-tide-times"
}, {
  "slug": "trwyn-dinmor",
  "name": "Trwyn Dinmor",
  "lat": "53.3166667",
  "lng": "-4.0500000",
  "url": "trwyn-dinmor-tide-times"
}, {
  "slug": "moelfre",
  "name": "Moelfre",
  "lat": "53.3333333",
  "lng": "-4.2333333",
  "url": "moelfre-tide-times"
}, {
  "slug": "amlwch",
  "name": "Amlwch",
  "lat": "53.4166667",
  "lng": "-4.3333333",
  "url": "amlwch-tide-times"
}, {
  "slug": "cemaes-bay",
  "name": "Cemaes Bay",
  "lat": "53.4166667",
  "lng": "-4.4500000",
  "url": "cemaes-bay-tide-times"
}, {
  "slug": "holyhead",
  "name": "Holyhead",
  "lat": "53.3166667",
  "lng": "-4.6166667",
  "url": "holyhead-tide-times"
}, {
  "slug": "trearddur-bay",
  "name": "Trearddur Bay",
  "lat": "53.2666667",
  "lng": "-4.6166667",
  "url": "trearddur-bay-tide-times"
}, {
  "slug": "porth-trecastell",
  "name": "Porth Trecastell",
  "lat": "53.2000000",
  "lng": "-4.5000000",
  "url": "porth-trecastell-tide-times"
}, {
  "slug": "llanddwyn-island",
  "name": "Llanddwyn Island",
  "lat": "53.1333333",
  "lng": "-4.4166667",
  "url": "llanddwyn-island-tide-times"
}, {
  "slug": "trefor",
  "name": "Trefor",
  "lat": "53.0000000",
  "lng": "-4.4166667",
  "url": "trefor-tide-times"
}, {
  "slug": "porth-dinllaen",
  "name": "Porth Dinllaen",
  "lat": "52.9500000",
  "lng": "-4.5666667",
  "url": "porth-dinllaen-tide-times"
}, {
  "slug": "porth-ysgaden",
  "name": "Porth Ysgaden",
  "lat": "52.9000000",
  "lng": "-4.6500000",
  "url": "porth-ysgaden-tide-times"
}, {
  "slug": "bardsey-island",
  "name": "Bardsey Island",
  "lat": "52.7666667",
  "lng": "-4.7833333",
  "url": "bardsey-island-tide-times"
}, {
  "slug": "aberdaron",
  "name": "Aberdaron",
  "lat": "52.8000000",
  "lng": "-4.7166667",
  "url": "aberdaron-tide-times"
}, {
  "slug": "st-tudwals-roads",
  "name": "St. Tudwal's Roads",
  "lat": "52.8166667",
  "lng": "-4.4833333",
  "url": "st-tudwals-roads-tide-times"
}, {
  "slug": "pwllheli",
  "name": "Pwllheli",
  "lat": "52.8833333",
  "lng": "-4.4000000",
  "url": "pwllheli-tide-times"
}, {
  "slug": "criccieth",
  "name": "Criccieth",
  "lat": "52.9166667",
  "lng": "-4.2333333",
  "url": "criccieth-tide-times"
}, {
  "slug": "porthmadog",
  "name": "Porthmadog",
  "lat": "52.9166667",
  "lng": "-4.1333333",
  "url": "porthmadog-tide-times"
}, {
  "slug": "barmouth",
  "name": "Barmouth",
  "lat": "52.7166667",
  "lng": "-4.0500000",
  "url": "barmouth-tide-times"
}, {
  "slug": "aberdovey",
  "name": "Aberdovey",
  "lat": "52.5500000",
  "lng": "-4.0500000",
  "url": "aberdovey-tide-times"
}, {
  "slug": "aberystwyth",
  "name": "Aberystwyth",
  "lat": "52.4000000",
  "lng": "-4.0833333",
  "url": "aberystwyth-tide-times"
}, {
  "slug": "new-quay",
  "name": "New Quay",
  "lat": "52.2166667",
  "lng": "-4.3500000",
  "url": "new-quay-tide-times"
}, {
  "slug": "aberporth",
  "name": "Aberporth",
  "lat": "52.1333333",
  "lng": "-4.5500000",
  "url": "aberporth-tide-times"
}, {
  "slug": "port-cardigan",
  "name": "Port Cardigan",
  "lat": "52.1166667",
  "lng": "-4.6833333",
  "url": "port-cardigan-tide-times"
}, {
  "slug": "cardigan-town",
  "name": "Cardigan (Town)",
  "lat": "52.0833333",
  "lng": "-4.6666667",
  "url": "cardigan-town-tide-times"
}, {
  "slug": "fishguard",
  "name": "Fishguard",
  "lat": "52.0166667",
  "lng": "-4.9833333",
  "url": "fishguard-tide-times"
}, {
  "slug": "porthgain",
  "name": "Porthgain",
  "lat": "51.9500000",
  "lng": "-5.1833333",
  "url": "porthgain-tide-times"
}, {
  "slug": "ramsey-sound",
  "name": "Ramsey Sound",
  "lat": "51.8833333",
  "lng": "-5.3166667",
  "url": "ramsey-sound-tide-times"
}, {
  "slug": "solva",
  "name": "Solva",
  "lat": "51.8666667",
  "lng": "-5.2000000",
  "url": "solva-tide-times"
}, {
  "slug": "little-haven",
  "name": "Little Haven",
  "lat": "51.7666667",
  "lng": "-5.1166667",
  "url": "little-haven-tide-times"
}, {
  "slug": "martins-haven",
  "name": "Martin's Haven",
  "lat": "51.7333333",
  "lng": "-5.2500000",
  "url": "martins-haven-tide-times"
}, {
  "slug": "skomer-island",
  "name": "Skomer Island",
  "lat": "51.7333333",
  "lng": "-5.2833333",
  "url": "skomer-island-tide-times"
}, {
  "slug": "dale-roads",
  "name": "Dale Roads",
  "lat": "51.7000000",
  "lng": "-5.1500000",
  "url": "dale-roads-tide-times"
}, {
  "slug": "milford-haven",
  "name": "Milford Haven",
  "lat": "51.7000000",
  "lng": "-5.0500000",
  "url": "milford-haven-tide-times"
}, {
  "slug": "neyland",
  "name": "Neyland",
  "lat": "51.7000000",
  "lng": "-4.9500000",
  "url": "neyland-tide-times"
}, {
  "slug": "black-tar",
  "name": "Black Tar",
  "lat": "51.7500000",
  "lng": "-4.9000000",
  "url": "black-tar-tide-times"
}, {
  "slug": "haverfordwest",
  "name": "Haverfordwest",
  "lat": "51.8000000",
  "lng": "-4.9666667",
  "url": "haverfordwest-tide-times"
}, {
  "slug": "stackpole-quay",
  "name": "Stackpole Quay",
  "lat": "51.6166667",
  "lng": "-4.9000000",
  "url": "stackpole-quay-tide-times"
}, {
  "slug": "tenby",
  "name": "Tenby",
  "lat": "51.6666667",
  "lng": "-4.7000000",
  "url": "tenby-tide-times"
}, {
  "slug": "ferryside",
  "name": "Ferryside",
  "lat": "51.7666667",
  "lng": "-4.3666667",
  "url": "ferryside-tide-times"
}, {
  "slug": "carmarthen",
  "name": "Carmarthen",
  "lat": "51.8500000",
  "lng": "-4.3000000",
  "url": "carmarthen-tide-times"
}, {
  "slug": "burry-port",
  "name": "Burry Port",
  "lat": "51.6833333",
  "lng": "-4.2500000",
  "url": "burry-port-tide-times"
}, {
  "slug": "llanelli",
  "name": "Llanelli",
  "lat": "51.6666667",
  "lng": "-4.1666667",
  "url": "llanelli-tide-times"
}, {
  "slug": "mumbles",
  "name": "Mumbles",
  "lat": "51.5666667",
  "lng": "-3.9666667",
  "url": "mumbles-tide-times"
}, {
  "slug": "swansea",
  "name": "Swansea",
  "lat": "51.6166667",
  "lng": "-3.9166667",
  "url": "swansea-tide-times"
}, {
  "slug": "river-neath-entrance",
  "name": "River Neath Entrance",
  "lat": "51.6166667",
  "lng": "-3.8500000",
  "url": "river-neath-entrance-tide-times"
}, {
  "slug": "port-talbot",
  "name": "Port Talbot",
  "lat": "51.5833333",
  "lng": "-3.8166667",
  "url": "port-talbot-tide-times"
}, {
  "slug": "porthcawl",
  "name": "Porthcawl",
  "lat": "51.4666667",
  "lng": "-3.7000000",
  "url": "porthcawl-tide-times"
}, {
  "slug": "barry",
  "name": "Barry",
  "lat": "51.3833333",
  "lng": "-3.2666667",
  "url": "barry-tide-times"
}, {
  "slug": "flat-holm",
  "name": "Flat Holm",
  "lat": "51.3833333",
  "lng": "-3.1166667",
  "url": "flat-holm-tide-times"
}, {
  "slug": "steep-holm",
  "name": "Steep Holm",
  "lat": "51.3333333",
  "lng": "-3.1000000",
  "url": "steep-holm-tide-times"
}, {
  "slug": "cardiff",
  "name": "Cardiff",
  "lat": "51.4500000",
  "lng": "-3.1666667",
  "url": "cardiff-tide-times"
}, {
  "slug": "newport",
  "name": "Newport",
  "lat": "51.5500000",
  "lng": "-2.9833333",
  "url": "newport-tide-times"
}, {
  "slug": "chepstow",
  "name": "Chepstow",
  "lat": "51.6500000",
  "lng": "-2.6666667",
  "url": "chepstow-tide-times"
}, {
  "slug": "sudbrook",
  "name": "Sudbrook",
  "lat": "51.5833333",
  "lng": "-2.7166667",
  "url": "sudbrook-tide-times"
}, {
  "slug": "beachley-aust",
  "name": "Beachley (Aust)",
  "lat": "51.6000000",
  "lng": "-2.6333333",
  "url": "beachley-aust-tide-times"
}, {
  "slug": "inward-rocks",
  "name": "Inward Rocks",
  "lat": "51.6500000",
  "lng": "-2.6166667",
  "url": "inward-rocks-tide-times"
}, {
  "slug": "narlwood-rocks",
  "name": "Narlwood Rocks",
  "lat": "51.6500000",
  "lng": "-2.6000000",
  "url": "narlwood-rocks-tide-times"
}, {
  "slug": "white-house",
  "name": "White House",
  "lat": "51.6666667",
  "lng": "-2.5500000",
  "url": "white-house-tide-times"
}, {
  "slug": "berkeley",
  "name": "Berkeley",
  "lat": "51.7000000",
  "lng": "-2.5000000",
  "url": "berkeley-tide-times"
}, {
  "slug": "sharpness-dock",
  "name": "Sharpness Dock",
  "lat": "51.7166667",
  "lng": "-2.4833333",
  "url": "sharpness-dock-tide-times"
}, {
  "slug": "wellhouse-rock",
  "name": "Wellhouse Rock",
  "lat": "51.7333333",
  "lng": "-2.4833333",
  "url": "wellhouse-rock-tide-times"
}, {
  "slug": "epney",
  "name": "Epney",
  "lat": "51.7000000",
  "lng": "-2.4000000",
  "url": "epney-tide-times"
}, {
  "slug": "minsterworth",
  "name": "Minsterworth",
  "lat": "51.8333333",
  "lng": "-2.3833333",
  "url": "minsterworth-tide-times"
}, {
  "slug": "llanthony",
  "name": "Llanthony",
  "lat": "51.8500000",
  "lng": "-2.3500000",
  "url": "llanthony-tide-times"
}, {
  "slug": "port-of-bristol-avonmouth",
  "name": "Port Of Bristol (Avonmouth)",
  "lat": "51.5000000",
  "lng": "-2.7333333",
  "url": "port-of-bristol-avonmouth-tide-times"
}, {
  "slug": "shirehampton",
  "name": "Shirehampton",
  "lat": "51.4833333",
  "lng": "-2.6833333",
  "url": "shirehampton-tide-times"
}, {
  "slug": "sea-mills",
  "name": "Sea Mills",
  "lat": "51.4833333",
  "lng": "-2.6500000",
  "url": "sea-mills-tide-times"
}, {
  "slug": "cumberland-basin-entrance",
  "name": "Cumberland Basin Entrance",
  "lat": "51.4500000",
  "lng": "-2.6166667",
  "url": "cumberland-basin-entrance-tide-times"
}, {
  "slug": "portishead",
  "name": "Portishead",
  "lat": "51.5000000",
  "lng": "-2.7500000",
  "url": "portishead-tide-times"
}, {
  "slug": "clevedon",
  "name": "Clevedon",
  "lat": "51.4500000",
  "lng": "-2.8666667",
  "url": "clevedon-tide-times"
}, {
  "slug": "st-thomass-head",
  "name": "St. Thomas's Head",
  "lat": "51.4000000",
  "lng": "-2.9333333",
  "url": "st-thomass-head-tide-times"
}, {
  "slug": "english-and-welsh-grounds",
  "name": "English And Welsh Grounds",
  "lat": "51.4666667",
  "lng": "-2.9833333",
  "url": "english-and-welsh-grounds-tide-times"
}, {
  "slug": "weston-super-mare",
  "name": "Weston-Super-Mare",
  "lat": "51.3500000",
  "lng": "-2.9833333",
  "url": "weston-super-mare-tide-times"
}, {
  "slug": "burnham-on-sea",
  "name": "Burnham-On-Sea",
  "lat": "51.2333333",
  "lng": "-3.0000000",
  "url": "burnham-on-sea-tide-times"
}, {
  "slug": "bridgwater",
  "name": "Bridgwater",
  "lat": "51.1333333",
  "lng": "-3.0000000",
  "url": "bridgwater-tide-times"
}, {
  "slug": "hinkley-point",
  "name": "Hinkley Point",
  "lat": "51.2166667",
  "lng": "-3.1333333",
  "url": "hinkley-point-tide-times"
}, {
  "slug": "watchet",
  "name": "Watchet",
  "lat": "51.1833333",
  "lng": "-3.3333333",
  "url": "watchet-tide-times"
}, {
  "slug": "minehead",
  "name": "Minehead",
  "lat": "51.2166667",
  "lng": "-3.4666667",
  "url": "minehead-tide-times"
}, {
  "slug": "porlock-bay",
  "name": "Porlock Bay",
  "lat": "51.2166667",
  "lng": "-3.6333333",
  "url": "porlock-bay-tide-times"
}, {
  "slug": "lynmouth",
  "name": "Lynmouth",
  "lat": "51.2333333",
  "lng": "-3.8333333",
  "url": "lynmouth-tide-times"
}, {
  "slug": "ilfracombe",
  "name": "Ilfracombe",
  "lat": "51.2166667",
  "lng": "-4.1166667",
  "url": "ilfracombe-tide-times"
}, {
  "slug": "appledore",
  "name": "Appledore",
  "lat": "51.0500000",
  "lng": "-4.2000000",
  "url": "appledore-tide-times"
}, {
  "slug": "yelland-marsh",
  "name": "Yelland Marsh",
  "lat": "51.0666667",
  "lng": "-4.1666667",
  "url": "yelland-marsh-tide-times"
}, {
  "slug": "fremington",
  "name": "Fremington",
  "lat": "51.0833333",
  "lng": "-4.1166667",
  "url": "fremington-tide-times"
}, {
  "slug": "barnstaple",
  "name": "Barnstaple",
  "lat": "51.0833333",
  "lng": "-4.0666667",
  "url": "barnstaple-tide-times"
}, {
  "slug": "bideford",
  "name": "Bideford",
  "lat": "51.0166667",
  "lng": "-4.2000000",
  "url": "bideford-tide-times"
}, {
  "slug": "clovelly",
  "name": "Clovelly",
  "lat": "51.0000000",
  "lng": "-4.4000000",
  "url": "clovelly-tide-times"
}, {
  "slug": "lundy",
  "name": "Lundy",
  "lat": "51.1666667",
  "lng": "-4.6500000",
  "url": "lundy-tide-times"
}, {
  "slug": "bude",
  "name": "Bude",
  "lat": "50.8333333",
  "lng": "-4.5500000",
  "url": "bude-tide-times"
}, {
  "slug": "boscastle",
  "name": "Boscastle",
  "lat": "50.6833333",
  "lng": "-4.7000000",
  "url": "boscastle-tide-times"
}, {
  "slug": "port-isaac",
  "name": "Port Isaac",
  "lat": "50.6000000",
  "lng": "-4.8333333",
  "url": "port-isaac-tide-times"
}, {
  "slug": "padstow",
  "name": "Padstow",
  "lat": "50.5500000",
  "lng": "-4.9333333",
  "url": "padstow-tide-times"
}, {
  "slug": "wadebridge",
  "name": "Wadebridge",
  "lat": "50.5166667",
  "lng": "-4.8333333",
  "url": "wadebridge-tide-times"
}, {
  "slug": "newquay",
  "name": "Newquay",
  "lat": "50.4166667",
  "lng": "-5.0833333",
  "url": "newquay-tide-times"
}, {
  "slug": "perranporth",
  "name": "Perranporth",
  "lat": "50.3500000",
  "lng": "-5.1500000",
  "url": "perranporth-tide-times"
}, {
  "slug": "st-ives",
  "name": "St. Ives",
  "lat": "50.2166667",
  "lng": "-5.4833333",
  "url": "st-ives-tide-times"
}, {
  "slug": "cape-cornwall",
  "name": "Cape Cornwall",
  "lat": "50.1333333",
  "lng": "-5.7000000",
  "url": "cape-cornwall-tide-times"
}, {
  "slug": "sennen-cove",
  "name": "Sennen Cove",
  "lat": "50.0833333",
  "lng": "-5.7000000",
  "url": "sennen-cove-tide-times"
}, {
  "slug": "courtown",
  "name": "Courtown",
  "lat": "52.6500000",
  "lng": "-6.2166667",
  "url": "courtown-tide-times"
}, {
  "slug": "arklow",
  "name": "Arklow",
  "lat": "52.8000000",
  "lng": "-6.1333333",
  "url": "arklow-tide-times"
}, {
  "slug": "wicklow",
  "name": "Wicklow",
  "lat": "52.9833333",
  "lng": "-6.0333333",
  "url": "wicklow-tide-times"
}, {
  "slug": "greystones",
  "name": "Greystones",
  "lat": "53.1500000",
  "lng": "-6.0666667",
  "url": "greystones-tide-times"
}, {
  "slug": "dun-laoghaire",
  "name": "Dun Laoghaire",
  "lat": "53.3000000",
  "lng": "-6.1333333",
  "url": "dun-laoghaire-tide-times"
}, {
  "slug": "dublin-bar",
  "name": "Dublin Bar",
  "lat": "53.3500000",
  "lng": "-6.1500000",
  "url": "dublin-bar-tide-times"
}, {
  "slug": "dublin-north-wall",
  "name": "Dublin (North Wall)",
  "lat": "53.3500000",
  "lng": "-6.2166667",
  "url": "dublin-north-wall-tide-times"
}, {
  "slug": "howth",
  "name": "Howth",
  "lat": "53.3833333",
  "lng": "-6.0666667",
  "url": "howth-tide-times"
}, {
  "slug": "malahide",
  "name": "Malahide",
  "lat": "53.4500000",
  "lng": "-6.1500000",
  "url": "malahide-tide-times"
}, {
  "slug": "balbriggan",
  "name": "Balbriggan",
  "lat": "53.6166667",
  "lng": "-6.1833333",
  "url": "balbriggan-tide-times"
}, {
  "slug": "river-boyne-bar",
  "name": "River Boyne Entrance",
  "lat": "53.7166667",
  "lng": "-6.2333333",
  "url": "river-boyne-bar-tide-times"
}, {
  "slug": "dunany-point",
  "name": "Dunany Point",
  "lat": "53.8666667",
  "lng": "-6.2333333",
  "url": "dunany-point-tide-times"
}, {
  "slug": "soldiers-point",
  "name": "Soldiers Point",
  "lat": "54.0000000",
  "lng": "-6.3500000",
  "url": "soldiers-point-tide-times"
}, {
  "slug": "greenore",
  "name": "Greenore",
  "lat": "54.0333333",
  "lng": "-6.1333333",
  "url": "greenore-tide-times"
}, {
  "slug": "cranfield-point",
  "name": "Cranfield Point",
  "lat": "54.0166667",
  "lng": "-6.0666667",
  "url": "cranfield-point-tide-times"
}, {
  "slug": "warrenpoint",
  "name": "Warrenpoint",
  "lat": "54.1000000",
  "lng": "-6.2500000",
  "url": "warrenpoint-tide-times"
}, {
  "slug": "newry-victoria-lock",
  "name": "Newry (Victoria Lock)",
  "lat": "54.1500000",
  "lng": "-6.3166667",
  "url": "newry-victoria-lock-tide-times"
}, {
  "slug": "kilkeel",
  "name": "Kilkeel",
  "lat": "54.0500000",
  "lng": "-5.9833333",
  "url": "kilkeel-tide-times"
}, {
  "slug": "newcastle-nireland",
  "name": "Newcastle (N.Ireland)",
  "lat": "54.2000000",
  "lng": "-5.8833333",
  "url": "newcastle-nireland-tide-times"
}, {
  "slug": "killough-harbour",
  "name": "Killough Harbour",
  "lat": "54.2500000",
  "lng": "-5.6333333",
  "url": "killough-harbour-tide-times"
}, {
  "slug": "ardglass",
  "name": "Ardglass",
  "lat": "54.2666667",
  "lng": "-5.6000000",
  "url": "ardglass-tide-times"
}, {
  "slug": "killard-point",
  "name": "Killard Point",
  "lat": "54.3166667",
  "lng": "-5.5166667",
  "url": "killard-point-tide-times"
}, {
  "slug": "strangford",
  "name": "Strangford",
  "lat": "54.3666667",
  "lng": "-5.5500000",
  "url": "strangford-tide-times"
}, {
  "slug": "quoile-barrier",
  "name": "Quoile Barrier",
  "lat": "54.3666667",
  "lng": "-5.6833333",
  "url": "quoile-barrier-tide-times"
}, {
  "slug": "killyleagh",
  "name": "Killyleagh",
  "lat": "54.4000000",
  "lng": "-5.6500000",
  "url": "killyleagh-tide-times"
}, {
  "slug": "south-rock",
  "name": "South Rock",
  "lat": "54.4000000",
  "lng": "-5.4166667",
  "url": "south-rock-tide-times"
}, {
  "slug": "portavogie",
  "name": "Portavogie",
  "lat": "54.4500000",
  "lng": "-5.4333333",
  "url": "portavogie-tide-times"
}, {
  "slug": "donaghadee",
  "name": "Donaghadee",
  "lat": "54.6500000",
  "lng": "-5.5333333",
  "url": "donaghadee-tide-times"
}, {
  "slug": "bangor",
  "name": "Bangor",
  "lat": "54.6666667",
  "lng": "-5.6666667",
  "url": "bangor-tide-times"
}, {
  "slug": "belfast",
  "name": "Belfast",
  "lat": "54.6000000",
  "lng": "-5.9166667",
  "url": "belfast-tide-times"
}, {
  "slug": "carrickfergus",
  "name": "Carrickfergus",
  "lat": "54.7166667",
  "lng": "-5.8000000",
  "url": "carrickfergus-tide-times"
}, {
  "slug": "larne",
  "name": "Larne",
  "lat": "54.8500000",
  "lng": "-5.8000000",
  "url": "larne-tide-times"
}, {
  "slug": "red-bay",
  "name": "Red Bay",
  "lat": "55.0666667",
  "lng": "-6.0500000",
  "url": "red-bay-tide-times"
}, {
  "slug": "cushendun",
  "name": "Cushendun",
  "lat": "55.1333333",
  "lng": "-6.0333333",
  "url": "cushendun-tide-times"
}, {
  "slug": "ballycastle-bay",
  "name": "Ballycastle Bay",
  "lat": "55.2000000",
  "lng": "-6.2333333",
  "url": "ballycastle-bay-tide-times"
}, {
  "slug": "portrush",
  "name": "Portrush",
  "lat": "55.2000000",
  "lng": "-6.6666667",
  "url": "portrush-tide-times"
}, {
  "slug": "coleraine",
  "name": "Coleraine",
  "lat": "55.1333333",
  "lng": "-6.6666667",
  "url": "coleraine-tide-times"
}, {
  "slug": "warren-lighthouse",
  "name": "Warren Lighthouse",
  "lat": "55.2166667",
  "lng": "-6.9500000",
  "url": "warren-lighthouse-tide-times"
}, {
  "slug": "moville",
  "name": "Moville",
  "lat": "55.1833333",
  "lng": "-7.0500000",
  "url": "moville-tide-times"
}, {
  "slug": "quigleys-point",
  "name": "Quigley's Point",
  "lat": "55.1333333",
  "lng": "-7.1833333",
  "url": "quigleys-point-tide-times"
}, {
  "slug": "culmore-point",
  "name": "Culmore Point",
  "lat": "55.0500000",
  "lng": "-7.2500000",
  "url": "culmore-point-tide-times"
}, {
  "slug": "river-foyle-lisahally",
  "name": "River Foyle (Lisahally)",
  "lat": "55.0500000",
  "lng": "-7.2666667",
  "url": "river-foyle-lisahally-tide-times"
}, {
  "slug": "londonderry",
  "name": "Londonderry",
  "lat": "55.0000000",
  "lng": "-7.3166667",
  "url": "londonderry-tide-times"
}, {
  "slug": "culdaff-bay",
  "name": "Culdaff Bay",
  "lat": "55.3000000",
  "lng": "-7.1500000",
  "url": "culdaff-bay-tide-times"
}, {
  "slug": "inishtrahull",
  "name": "Inishtrahull",
  "lat": "55.4333333",
  "lng": "-7.2333333",
  "url": "inishtrahull-tide-times"
}, {
  "slug": "bulbinbeg",
  "name": "Bulbinbeg",
  "lat": "55.3666667",
  "lng": "-7.3333333",
  "url": "bulbinbeg-tide-times"
}, {
  "slug": "trawbreaga-bay",
  "name": "Trawbreaga Bay",
  "lat": "55.3166667",
  "lng": "-7.3833333",
  "url": "trawbreaga-bay-tide-times"
}, {
  "slug": "rathmullan",
  "name": "Rathmullan",
  "lat": "55.1000000",
  "lng": "-7.5333333",
  "url": "rathmullan-tide-times"
}, {
  "slug": "fanad-head",
  "name": "Fanad Head",
  "lat": "55.2833333",
  "lng": "-7.6333333",
  "url": "fanad-head-tide-times"
}, {
  "slug": "mulroy-bay-bar",
  "name": "Mulroy Bay Bar",
  "lat": "55.2500000",
  "lng": "-7.7666667",
  "url": "mulroy-bay-bar-tide-times"
}, {
  "slug": "fannys-bay",
  "name": "Fanny's Bay",
  "lat": "55.2000000",
  "lng": "-7.8166667",
  "url": "fannys-bay-tide-times"
}, {
  "slug": "seamount-bay",
  "name": "Seamount Bay",
  "lat": "55.1833333",
  "lng": "-7.7333333",
  "url": "seamount-bay-tide-times"
}, {
  "slug": "cranford-bay",
  "name": "Cranford Bay",
  "lat": "55.1500000",
  "lng": "-7.7000000",
  "url": "cranford-bay-tide-times"
}, {
  "slug": "downies-bay",
  "name": "Downies Bay",
  "lat": "55.1833333",
  "lng": "-7.8333333",
  "url": "downies-bay-tide-times"
}, {
  "slug": "inishbofin-bay",
  "name": "Inishbofin Bay",
  "lat": "55.1666667",
  "lng": "-8.1666667",
  "url": "inishbofin-bay-tide-times"
}, {
  "slug": "gweedore-harbour",
  "name": "Gweedore Harbour",
  "lat": "55.0666667",
  "lng": "-8.3166667",
  "url": "gweedore-harbour-tide-times"
}, {
  "slug": "burtonport",
  "name": "Burtonport",
  "lat": "54.9833333",
  "lng": "-8.4333333",
  "url": "burtonport-tide-times"
}, {
  "slug": "loughros-more-bay",
  "name": "Loughros More Bay",
  "lat": "54.7833333",
  "lng": "-8.5000000",
  "url": "loughros-more-bay-tide-times"
}, {
  "slug": "killybegs",
  "name": "Killybegs",
  "lat": "54.6333333",
  "lng": "-8.4333333",
  "url": "killybegs-tide-times"
}, {
  "slug": "donegal-harbour-salt-hill-quay",
  "name": "Donegal Harbour (Salt Hill Quay)",
  "lat": "54.6333333",
  "lng": "-8.2000000",
  "url": "donegal-harbour-salt-hill-quay-tide-times"
}, {
  "slug": "mullaghmore",
  "name": "Mullaghmore",
  "lat": "54.4666667",
  "lng": "-8.4500000",
  "url": "mullaghmore-tide-times"
}, {
  "slug": "sligo-harbour-oyster-island",
  "name": "Sligo Harbour (Oyster Island)",
  "lat": "54.3000000",
  "lng": "-8.5666667",
  "url": "sligo-harbour-oyster-island-tide-times"
}, {
  "slug": "ballysadare-bay-culleenamore",
  "name": "Ballysadare Bay (Culleenamore)",
  "lat": "54.2500000",
  "lng": "-8.5833333",
  "url": "ballysadare-bay-culleenamore-tide-times"
}, {
  "slug": "killala-bay-inishcrone",
  "name": "Killala Bay (Inishcrone)",
  "lat": "54.2166667",
  "lng": "-9.1000000",
  "url": "killala-bay-inishcrone-tide-times"
}, {
  "slug": "ballyglass-broadhaven",
  "name": "Ballyglass (Broadhaven)",
  "lat": "54.2666667",
  "lng": "-9.8833333",
  "url": "ballyglass-broadhaven-tide-times"
}, {
  "slug": "blacksod-quay",
  "name": "Blacksod Quay",
  "lat": "54.1000000",
  "lng": "-10.0666667",
  "url": "blacksod-quay-tide-times"
}, {
  "slug": "inishbiggle",
  "name": "Inishbiggle",
  "lat": "54.0000000",
  "lng": "-9.8833333",
  "url": "inishbiggle-tide-times"
}, {
  "slug": "clare-island",
  "name": "Clare Island",
  "lat": "53.8000000",
  "lng": "-9.9500000",
  "url": "clare-island-tide-times"
}, {
  "slug": "inishgort",
  "name": "Inishgort",
  "lat": "53.8333333",
  "lng": "-9.6666667",
  "url": "inishgort-tide-times"
}, {
  "slug": "roonah-quay",
  "name": "Roonah Quay",
  "lat": "53.7666667",
  "lng": "-9.9000000",
  "url": "roonah-quay-tide-times"
}, {
  "slug": "killary-harbour",
  "name": "Killary Harbour",
  "lat": "53.6333333",
  "lng": "-9.8833333",
  "url": "killary-harbour-tide-times"
}, {
  "slug": "bofin-harbour",
  "name": "Bofin Harbour",
  "lat": "53.6166667",
  "lng": "-10.2000000",
  "url": "bofin-harbour-tide-times"
}, {
  "slug": "clifden-bay",
  "name": "Clifden Bay",
  "lat": "53.4833333",
  "lng": "-10.0666667",
  "url": "clifden-bay-tide-times"
}, {
  "slug": "slyne-head",
  "name": "Slyne Head",
  "lat": "53.4000000",
  "lng": "-10.2333333",
  "url": "slyne-head-tide-times"
}, {
  "slug": "roundstone-bay",
  "name": "Roundstone Bay",
  "lat": "53.3833333",
  "lng": "-9.9166667",
  "url": "roundstone-bay-tide-times"
}, {
  "slug": "kilkieran-cove",
  "name": "Kilkieran Cove",
  "lat": "53.3166667",
  "lng": "-9.7333333",
  "url": "kilkieran-cove-tide-times"
}, {
  "slug": "inishmore-killeany-bay",
  "name": "Inishmore (Killeany Bay)",
  "lat": "53.1166667",
  "lng": "-9.6666667",
  "url": "inishmore-killeany-bay-tide-times"
}, {
  "slug": "galway",
  "name": "Galway",
  "lat": "53.2666667",
  "lng": "-9.0500000",
  "url": "galway-tide-times"
}, {
  "slug": "liscannor",
  "name": "Liscannor",
  "lat": "52.9333333",
  "lng": "-9.3833333",
  "url": "liscannor-tide-times"
}, {
  "slug": "seafield-point",
  "name": "Seafield Point",
  "lat": "52.8000000",
  "lng": "-9.5000000",
  "url": "seafield-point-tide-times"
}, {
  "slug": "kilbaha-bay",
  "name": "Kilbaha Bay",
  "lat": "52.5666667",
  "lng": "-9.8666667",
  "url": "kilbaha-bay-tide-times"
}, {
  "slug": "carrigaholt",
  "name": "Carrigaholt",
  "lat": "52.6000000",
  "lng": "-9.7000000",
  "url": "carrigaholt-tide-times"
}, {
  "slug": "kilrush",
  "name": "Kilrush",
  "lat": "52.6333333",
  "lng": "-9.5000000",
  "url": "kilrush-tide-times"
}, {
  "slug": "tarbert-island",
  "name": "Tarbert Island",
  "lat": "52.5833333",
  "lng": "-9.3500000",
  "url": "tarbert-island-tide-times"
}, {
  "slug": "foynes-island",
  "name": "Foynes Island",
  "lat": "52.6166667",
  "lng": "-9.1166667",
  "url": "foynes-island-tide-times"
}, {
  "slug": "mellon-point",
  "name": "Mellon Point",
  "lat": "52.6666667",
  "lng": "-8.8333333",
  "url": "mellon-point-tide-times"
}, {
  "slug": "limerick-dock",
  "name": "Limerick Dock",
  "lat": "52.6666667",
  "lng": "-8.6333333",
  "url": "limerick-dock-tide-times"
}, {
  "slug": "coney-island",
  "name": "Coney Island",
  "lat": "52.7166667",
  "lng": "-8.9833333",
  "url": "coney-island-tide-times"
}, {
  "slug": "fenit-pier",
  "name": "Fenit Pier",
  "lat": "52.2666667",
  "lng": "-9.8666667",
  "url": "fenit-pier-tide-times"
}, {
  "slug": "smerwick-harbour",
  "name": "Smerwick Harbour",
  "lat": "52.2000000",
  "lng": "-10.4000000",
  "url": "smerwick-harbour-tide-times"
}, {
  "slug": "dingle-harbour",
  "name": "Dingle Harbour",
  "lat": "52.1166667",
  "lng": "-10.2500000",
  "url": "dingle-harbour-tide-times"
}, {
  "slug": "cromane-point",
  "name": "Cromane Point",
  "lat": "52.1333333",
  "lng": "-9.9000000",
  "url": "cromane-point-tide-times"
}, {
  "slug": "knights-town",
  "name": "Knights Town",
  "lat": "51.9333333",
  "lng": "-10.3000000",
  "url": "knights-town-tide-times"
}, {
  "slug": "ballinskelligs-bay-castle",
  "name": "Ballinskelligs Bay Castle",
  "lat": "51.8166667",
  "lng": "-10.2666667",
  "url": "ballinskelligs-bay-castle-tide-times"
}, {
  "slug": "west-cove",
  "name": "West Cove",
  "lat": "51.7666667",
  "lng": "-10.0500000",
  "url": "west-cove-tide-times"
}, {
  "slug": "dunkerron-harbour",
  "name": "Dunkerron Harbour",
  "lat": "51.8666667",
  "lng": "-9.6500000",
  "url": "dunkerron-harbour-tide-times"
}, {
  "slug": "ballycrovane-harbour",
  "name": "Ballycrovane Harbour",
  "lat": "51.7166667",
  "lng": "-9.9500000",
  "url": "ballycrovane-harbour-tide-times"
}, {
  "slug": "black-ball-harbour",
  "name": "Black Ball Harbour",
  "lat": "51.6000000",
  "lng": "-10.0333333",
  "url": "black-ball-harbour-tide-times"
}, {
  "slug": "castletown-bearhaven",
  "name": "Castletown Bearhaven",
  "lat": "51.6500000",
  "lng": "-9.9000000",
  "url": "castletown-bearhaven-tide-times"
}, {
  "slug": "bantry",
  "name": "Bantry",
  "lat": "51.6833333",
  "lng": "-9.4666667",
  "url": "bantry-tide-times"
}, {
  "slug": "dunbeacon-harbour",
  "name": "Dunbeacon Harbour",
  "lat": "51.6166667",
  "lng": "-9.5500000",
  "url": "dunbeacon-harbour-tide-times"
}, {
  "slug": "dunmanus-harbour",
  "name": "Dunmanus Harbour",
  "lat": "51.5333333",
  "lng": "-9.6666667",
  "url": "dunmanus-harbour-tide-times"
}, {
  "slug": "crookhaven",
  "name": "Crookhaven",
  "lat": "51.4666667",
  "lng": "-9.7333333",
  "url": "crookhaven-tide-times"
}, {
  "slug": "schull",
  "name": "Schull",
  "lat": "51.5166667",
  "lng": "-9.5333333",
  "url": "schull-tide-times"
}, {
  "slug": "baltimore-ireland",
  "name": "Baltimore, Ireland",
  "lat": "51.4833333",
  "lng": "-9.3666667",
  "url": "baltimore-ireland-tide-times"
}, {
  "slug": "castletownshend",
  "name": "Castletownshend",
  "lat": "51.5333333",
  "lng": "-9.1666667",
  "url": "castletownshend-tide-times"
}, {
  "slug": "clonakilty-bay",
  "name": "Clonakilty Bay",
  "lat": "51.5833333",
  "lng": "-8.8333333",
  "url": "clonakilty-bay-tide-times"
}, {
  "slug": "courtmacsherry",
  "name": "Courtmacsherry",
  "lat": "51.6333333",
  "lng": "-8.7166667",
  "url": "courtmacsherry-tide-times"
}, {
  "slug": "kinsale",
  "name": "Kinsale",
  "lat": "51.7000000",
  "lng": "-8.5166667",
  "url": "kinsale-tide-times"
}, {
  "slug": "roberts-cove",
  "name": "Roberts Cove",
  "lat": "51.7500000",
  "lng": "-8.3166667",
  "url": "roberts-cove-tide-times"
}, {
  "slug": "cobh",
  "name": "Cobh",
  "lat": "51.8500000",
  "lng": "-8.3000000",
  "url": "cobh-tide-times"
}, {
  "slug": "ringaskiddy",
  "name": "Ringaskiddy",
  "lat": "51.8333333",
  "lng": "-8.3166667",
  "url": "ringaskiddy-tide-times"
}, {
  "slug": "marino-point",
  "name": "Marino Point",
  "lat": "51.8833333",
  "lng": "-8.3333333",
  "url": "marino-point-tide-times"
}, {
  "slug": "cork-city",
  "name": "Cork City",
  "lat": "51.9000000",
  "lng": "-8.4500000",
  "url": "cork-city-tide-times"
}, {
  "slug": "ballycotton",
  "name": "Ballycotton",
  "lat": "51.8333333",
  "lng": "-8.0166667",
  "url": "ballycotton-tide-times"
}, {
  "slug": "youghal",
  "name": "Youghal",
  "lat": "51.9500000",
  "lng": "-7.8500000",
  "url": "youghal-tide-times"
}, {
  "slug": "dungarvan-harbour",
  "name": "Dungarvan Harbour",
  "lat": "52.0833333",
  "lng": "-7.5666667",
  "url": "dungarvan-harbour-tide-times"
}, {
  "slug": "dunmore-east",
  "name": "Dunmore East",
  "lat": "52.1500000",
  "lng": "-6.9833333",
  "url": "dunmore-east-tide-times"
}, {
  "slug": "cheekpoint",
  "name": "Cheekpoint",
  "lat": "52.2666667",
  "lng": "-7.0000000",
  "url": "cheekpoint-tide-times"
}, {
  "slug": "kilmokea-point",
  "name": "Kilmokea Point",
  "lat": "52.2833333",
  "lng": "-7.0000000",
  "url": "kilmokea-point-tide-times"
}, {
  "slug": "waterford",
  "name": "Waterford",
  "lat": "52.2666667",
  "lng": "-7.1000000",
  "url": "waterford-tide-times"
}, {
  "slug": "new-ross",
  "name": "New Ross",
  "lat": "52.4000000",
  "lng": "-6.9500000",
  "url": "new-ross-tide-times"
}, {
  "slug": "baginbun-head",
  "name": "Baginbun Head",
  "lat": "52.1666667",
  "lng": "-6.8333333",
  "url": "baginbun-head-tide-times"
}, {
  "slug": "fethard-on-sea",
  "name": "Fethard-On-Sea",
  "lat": "52.2000000",
  "lng": "-6.8166667",
  "url": "fethard-on-sea-tide-times"
}, {
  "slug": "great-saltee",
  "name": "Great Saltee",
  "lat": "52.1166667",
  "lng": "-6.6166667",
  "url": "great-saltee-tide-times"
}, {
  "slug": "carnsore-point",
  "name": "Carnsore Point",
  "lat": "52.1666667",
  "lng": "-6.3666667",
  "url": "carnsore-point-tide-times"
}, {
  "slug": "rosslare-europort",
  "name": "Rosslare Europort",
  "lat": "52.2500000",
  "lng": "-6.3333333",
  "url": "rosslare-europort-tide-times"
}, {
  "slug": "wexford-harbour",
  "name": "Wexford Harbour",
  "lat": "52.3333333",
  "lng": "-6.4500000",
  "url": "wexford-harbour-tide-times"
}, {
  "slug": "braye",
  "name": "Braye",
  "lat": "49.7166667",
  "lng": "-2.2000000",
  "url": "braye-tide-times"
}, {
  "slug": "maseline-pier",
  "name": "Maseline Pier",
  "lat": "49.4333333",
  "lng": "-2.3500000",
  "url": "maseline-pier-tide-times"
}, {
  "slug": "st-peter-port",
  "name": "St. Peter Port",
  "lat": "49.4500000",
  "lng": "-2.5333333",
  "url": "st-peter-port-tide-times"
}, {
  "slug": "st-helier",
  "name": "St. Helier",
  "lat": "49.1833333",
  "lng": "-2.1166667",
  "url": "st-helier-tide-times"
}, {
  "slug": "st-catherine-bay",
  "name": "St. Catherine Bay",
  "lat": "49.2166667",
  "lng": "-2.0166667",
  "url": "st-catherine-bay-tide-times"
}, {
  "slug": "bouley-bay",
  "name": "Bouley Bay",
  "lat": "49.2500000",
  "lng": "-2.0833333",
  "url": "bouley-bay-tide-times"
}, {
  "slug": "les-ecrehou",
  "name": "Les Ecrehou",
  "lat": "49.2833333",
  "lng": "-1.9333333",
  "url": "les-ecrehou-tide-times"
}, {
  "slug": "les-minquiers",
  "name": "Les Minquiers",
  "lat": "48.9500000",
  "lng": "-2.1333333",
  "url": "les-minquiers-tide-times"
}, {
  "slug": "ardchattan-point",
  "name": "Ardchattan Point",
  "lat": "56.466666",
  "lng": "-5.283333",
  "url": "ardchattan-point-tide-times"
}, {
  "slug": "dundalk",
  "name": "Dundalk",
  "lat": "54.0",
  "lng": "-6.383333",
  "url": "dundalk-tide-times"
}, {
  "slug": "erith",
  "name": "Erith",
  "lat": "51.483333",
  "lng": "0.183333",
  "url": "erith-tide-times"
}, {
  "slug": "gravesend",
  "name": "Gravesend",
  "lat": "51.45",
  "lng": "0.383333",
  "url": "gravesend-tide-times"
}, {
  "slug": "kilmore-quay",
  "name": "Kilmore Quay",
  "lat": "52.166666",
  "lng": "-6.583333",
  "url": "kilmore-quay-tide-times"
}, {
  "slug": "portsmouth-high-water-stand",
  "name": "Portsmouth (High Water Stand)",
  "lat": "50.816666",
  "lng": "-1.116666",
  "url": "portsmouth-high-water-stand-tide-times"
}, {
  "slug": "rossaveel",
  "name": "Rossaveel",
  "lat": "53.266666",
  "lng": "-9.566666",
  "url": "rossaveel-tide-times"
}, {
  "slug": "rubha-na-creige",
  "name": "Rubha Na Creige",
  "lat": "56.466666",
  "lng": "-5.183333",
  "url": "rubha-na-creige-tide-times"
}, {
  "slug": "sovereign-harbour",
  "name": "Sovereign Harbour",
  "lat": "50.783333",
  "lng": "0.316666",
  "url": "sovereign-harbour-tide-times"
}]
